latitude,longitude,weatherstationtype,weatherstationurl,weatherstationairportid,state
33.177,-86.783,ASOS,https://www.aviationweather.gov/metar/data?ids=KEET&format=raw&date=0&hours=36,KEET,AL
31.309,-86.394,ASOS,https://www.aviationweather.gov/metar/data?ids=K79J&format=raw&date=0&hours=36,K79J,AL
33.588,-85.858,ASOS,https://www.aviationweather.gov/metar/data?ids=KANB&format=raw&date=0&hours=36,KANB,AL
33.564,-86.752,ASOS,https://www.aviationweather.gov/metar/data?ids=KBHM&format=raw&date=0&hours=36,KBHM,AL
34.653,-86.945,ASOS,https://www.aviationweather.gov/metar/data?ids=KDCU&format=raw&date=0&hours=36,KDCU,AL
31.321,-85.45,ASOS,https://www.aviationweather.gov/metar/data?ids=KDHN&format=raw&date=0&hours=36,KDHN,AL
31.416,-87.044,ASOS,https://www.aviationweather.gov/metar/data?ids=KGZH&format=raw&date=0&hours=36,KGZH,AL
31.8456944,-86.61075,ASOS,https://www.aviationweather.gov/metar/data?ids=KPRN&format=raw&date=0&hours=36,KPRN,AL
34.637,-86.775,ASOS,https://www.aviationweather.gov/metar/data?ids=KHSV&format=raw&date=0&hours=36,KHSV,AL
30.627,-88.068,ASOS,https://www.aviationweather.gov/metar/data?ids=KBFM&format=raw&date=0&hours=36,KBFM,AL
30.691,-88.243,ASOS,https://www.aviationweather.gov/metar/data?ids=KMOB&format=raw&date=0&hours=36,KMOB,AL
32.301,-86.394,ASOS,https://www.aviationweather.gov/metar/data?ids=KMGM&format=raw&date=0&hours=36,KMGM,AL
34.745,-87.61,ASOS,https://www.aviationweather.gov/metar/data?ids=KMSL&format=raw&date=0&hours=36,KMSL,AL
31.861,-86.012,ASOS,https://www.aviationweather.gov/metar/data?ids=KTOI&format=raw&date=0&hours=36,KTOI,AL
33,-88,ASOS,https://www.aviationweather.gov/metar/data?ids=KTCL&format=raw&date=0&hours=36,KTCL,AL
61.18,-149.972,ASOS,https://www.aviationweather.gov/metar/data?ids=PALH&format=raw&date=0&hours=36,PALH,AK
61.214,-149.845,ASOS,https://www.aviationweather.gov/metar/data?ids=PAMR&format=raw&date=0&hours=36,PAMR,AK
61.174,-149.996,ASOS,https://www.aviationweather.gov/metar/data?ids=PANC&format=raw&date=0&hours=36,PANC,AK
71.286,-156.766,ASOS,https://www.aviationweather.gov/metar/data?ids=PABR&format=raw&date=0&hours=36,PABR,AK
60.7785556,-161.8371667,ASOS,https://www.aviationweather.gov/metar/data?ids=PABE&format=raw&date=0&hours=36,PABE,AK
66.914,-151.529,ASOS,https://www.aviationweather.gov/metar/data?ids=PABT&format=raw&date=0&hours=36,PABT,AK
55.206,-162.726,ASOS,https://www.aviationweather.gov/metar/data?ids=PACD&format=raw&date=0&hours=36,PACD,AK
60.492,-145.478,ASOS,https://www.aviationweather.gov/metar/data?ids=PACV&format=raw&date=0&hours=36,PACV,AK
70.195,-148.465,ASOS,https://www.aviationweather.gov/metar/data?ids=PASC&format=raw&date=0&hours=36,PASC,AK
66.07,-162.766,ASOS,https://www.aviationweather.gov/metar/data?ids=PADE&format=raw&date=0&hours=36,PADE,AK
63.995,-145.72,ASOS,https://www.aviationweather.gov/metar/data?ids=PABI&format=raw&date=0&hours=36,PABI,AK
64.776,-141.151,ASOS,https://www.aviationweather.gov/metar/data?ids=PAEG&format=raw&date=0&hours=36,PAEG,AK
52.7103638,-174.1167111,ASOS,https://www.aviationweather.gov/metar/data?ids=PASY&format=raw&date=0&hours=36,PASY,AK
64.815,-147.856,ASOS,https://www.aviationweather.gov/metar/data?ids=PAFA&format=raw&date=0&hours=36,PAFA,AK
60.784,-148.841,ASOS,https://www.aviationweather.gov/metar/data?ids=PATO&format=raw&date=0&hours=36,PATO,AK
62.155,-145.454,ASOS,https://www.aviationweather.gov/metar/data?ids=PAGK&format=raw&date=0&hours=36,PAGK,AK
59.244,-135.524,ASOS,https://www.aviationweather.gov/metar/data?ids=PAHN&format=raw&date=0&hours=36,PAHN,AK
59.646,-151.477,ASOS,https://www.aviationweather.gov/metar/data?ids=PAHO&format=raw&date=0&hours=36,PAHO,AK
59.754,-154.911,ASOS,https://www.aviationweather.gov/metar/data?ids=PAIL&format=raw&date=0&hours=36,PAIL,AK
58.355,-134.576,ASOS,https://www.aviationweather.gov/metar/data?ids=PAJN&format=raw&date=0&hours=36,PAJN,AK
64.319,-158.741,ASOS,https://www.aviationweather.gov/metar/data?ids=PAKV&format=raw&date=0&hours=36,PAKV,AK
60.573,-151.245,ASOS,https://www.aviationweather.gov/metar/data?ids=PAEN&format=raw&date=0&hours=36,PAEN,AK
55.356,-131.714,ASOS,https://www.aviationweather.gov/metar/data?ids=PAKT&format=raw&date=0&hours=36,PAKT,AK
58.677,-156.649,ASOS,https://www.aviationweather.gov/metar/data?ids=PAKN&format=raw&date=0&hours=36,PAKN,AK
67.736,-164.564,ASOS,https://www.aviationweather.gov/metar/data?ids=PAVL&format=raw&date=0&hours=36,PAVL,AK
55.579,-133.076,ASOS,https://www.aviationweather.gov/metar/data?ids=PAKW&format=raw&date=0&hours=36,PAKW,AK
57.75,-152.494,ASOS,https://www.aviationweather.gov/metar/data?ids=PADQ&format=raw&date=0&hours=36,PADQ,AK
66.885,-162.599,ASOS,https://www.aviationweather.gov/metar/data?ids=PAOT&format=raw&date=0&hours=36,PAOT,AK
62.953,-155.606,ASOS,https://www.aviationweather.gov/metar/data?ids=PAMC&format=raw&date=0&hours=36,PAMC,AK
64.547,-149.074,ASOS,https://www.aviationweather.gov/metar/data?ids=PANN&format=raw&date=0&hours=36,PANN,AK
64.512,-165.445,ASOS,https://www.aviationweather.gov/metar/data?ids=PAOM&format=raw&date=0&hours=36,PAOM,AK
62.961,-141.929,ASOS,https://www.aviationweather.gov/metar/data?ids=PAOR&format=raw&date=0&hours=36,PAOR,AK
70.21,-151.006,ASOS,https://www.aviationweather.gov/metar/data?ids=PAQT&format=raw&date=0&hours=36,PAQT,AK
61.595,-149.089,ASOS,https://www.aviationweather.gov/metar/data?ids=PAAQ&format=raw&date=0&hours=36,PAAQ,AK
59.443,-151.704,ASOS,https://www.aviationweather.gov/metar/data?ids=PASO&format=raw&date=0&hours=36,PASO,AK
60.127,-149.419,ASOS,https://www.aviationweather.gov/metar/data?ids=PAWD&format=raw&date=0&hours=36,PAWD,AK
57.047,-135.362,ASOS,https://www.aviationweather.gov/metar/data?ids=PASI&format=raw&date=0&hours=36,PASI,AK
59.46,-135.316,ASOS,https://www.aviationweather.gov/metar/data?ids=PAGY&format=raw&date=0&hours=36,PAGY,AK
56.577,-169.664,ASOS,https://www.aviationweather.gov/metar/data?ids=PAPB&format=raw&date=0&hours=36,PAPB,AK
57.167,-170.221,ASOS,https://www.aviationweather.gov/metar/data?ids=PASN&format=raw&date=0&hours=36,PASN,AK
62.321,-150.094,ASOS,https://www.aviationweather.gov/metar/data?ids=PATK&format=raw&date=0&hours=36,PATK,AK
65.174,-152.109,ASOS,https://www.aviationweather.gov/metar/data?ids=PATA&format=raw&date=0&hours=36,PATA,AK
70.638,-159.995,ASOS,https://www.aviationweather.gov/metar/data?ids=PAWI&format=raw&date=0&hours=36,PAWI,AK
59.503,-139.66,ASOS,https://www.aviationweather.gov/metar/data?ids=PAYA&format=raw&date=0&hours=36,PAYA,AK
31.469,-109.604,ASOS,https://www.aviationweather.gov/metar/data?ids=KDUG&format=raw&date=0&hours=36,KDUG,AZ
35.139,-111.671,ASOS,https://www.aviationweather.gov/metar/data?ids=KFLG&format=raw&date=0&hours=36,KFLG,AZ
35.952,-112.147,ASOS,https://www.aviationweather.gov/metar/data?ids=KGCN&format=raw&date=0&hours=36,KGCN,AZ
35.26,-113.938,ASOS,https://www.aviationweather.gov/metar/data?ids=KIGM&format=raw&date=0&hours=36,KIGM,AZ
33.4658333,-111.721111,ASOS,https://aviationweather.gov/metar/data?ids=KFFZ&format=raw&date=&hours=36,KFFZ,AZ
31.418,-110.848,ASOS,https://www.aviationweather.gov/metar/data?ids=KOLS&format=raw&date=0&hours=36,KOLS,AZ
36.926,-111.448,ASOS,https://www.aviationweather.gov/metar/data?ids=KPGA&format=raw&date=0&hours=36,KPGA,AZ
33.688,-112.083,ASOS,https://www.aviationweather.gov/metar/data?ids=KDVT&format=raw&date=0&hours=36,KDVT,AZ
33.434,-112.012,ASOS,https://www.aviationweather.gov/metar/data?ids=KPHX&format=raw&date=0&hours=36,KPHX,AZ
34.655,-112.42,ASOS,https://www.aviationweather.gov/metar/data?ids=KPRC&format=raw&date=0&hours=36,KPRC,AZ
32.853,-109.635,ASOS,https://www.aviationweather.gov/metar/data?ids=KSAD&format=raw&date=0&hours=36,KSAD,AZ
33.623,-111.911,ASOS,https://www.aviationweather.gov/metar/data?ids=KSDL&format=raw&date=0&hours=36,KSDL,AZ
31.55646,-110.35056,ASOS,https://www.aviationweather.gov/metar/data?ids=KFHU&format=raw&date=0&hours=36,KFHU,AZ
34.519,-109.379,ASOS,https://www.aviationweather.gov/metar/data?ids=KSJN&format=raw&date=0&hours=36,KSJN,AZ
32.116,-110.941,ASOS,https://www.aviationweather.gov/metar/data?ids=KTUS&format=raw&date=0&hours=36,KTUS,AZ
35.652,-109.067,ASOS,https://www.aviationweather.gov/metar/data?ids=KRQE&format=raw&date=0&hours=36,KRQE,AZ
35.022,-110.723,ASOS,https://www.aviationweather.gov/metar/data?ids=KINW&format=raw&date=0&hours=36,KINW,AZ
32.6565739,-114.6059872,ASOS,https://aviationweather.gov/metar/data?ids=knyl&format=raw&date=0&hours=36,KNYL,AZ
36.369,-92.471,ASOS,https://www.aviationweather.gov/metar/data?ids=KBPK&format=raw&date=0&hours=36,KBPK,AR
35.94,-89.831,ASOS,https://www.aviationweather.gov/metar/data?ids=KHKA&format=raw&date=0&hours=36,KHKA,AR
34.047,-94.399,ASOS,https://www.aviationweather.gov/metar/data?ids=KDEQ&format=raw&date=0&hours=36,KDEQ,AR
36.005,-94.17,ASOS,https://www.aviationweather.gov/metar/data?ids=KFYV&format=raw&date=0&hours=36,KFYV,AR
35.337,-94.368,ASOS,https://www.aviationweather.gov/metar/data?ids=KFSM&format=raw&date=0&hours=36,KFSM,AR
36.262,-93.155,ASOS,https://www.aviationweather.gov/metar/data?ids=KHRO&format=raw&date=0&hours=36,KHRO,AR
34.478,-93.096,ASOS,https://www.aviationweather.gov/metar/data?ids=KHOT&format=raw&date=0&hours=36,KHOT,AR
35.832,-90.647,ASOS,https://www.aviationweather.gov/metar/data?ids=KJBR&format=raw&date=0&hours=36,KJBR,AR
34.73,-92.224,ASOS,https://www.aviationweather.gov/metar/data?ids=KLIT&format=raw&date=0&hours=36,KLIT,AR
33.639,-91.751,ASOS,https://www.aviationweather.gov/metar/data?ids=KLLQ&format=raw&date=0&hours=36,KLLQ,AR
36.282,-94.307,ASOS,https://www.aviationweather.gov/metar/data?ids=KXNA&format=raw&date=0&hours=36,KXNA,AR
34.173,-91.936,ASOS,https://www.aviationweather.gov/metar/data?ids=KPBF&format=raw&date=0&hours=36,KPBF,AR
35.259,-93.093,ASOS,https://www.aviationweather.gov/metar/data?ids=KRUE&format=raw&date=0&hours=36,KRUE,AR
33.221,-92.813,ASOS,https://www.aviationweather.gov/metar/data?ids=KELD&format=raw&date=0&hours=36,KELD,AR
33.454,-93.991,ASOS,https://www.aviationweather.gov/metar/data?ids=KTXK&format=raw&date=0&hours=36,KTXK,AR
35.135,-90.235,ASOS,https://www.aviationweather.gov/metar/data?ids=KAWM&format=raw&date=0&hours=36,KAWM,AR
41.483,-120.565,ASOS,https://www.aviationweather.gov/metar/data?ids=KAAT&format=raw&date=0&hours=36,KAAT,CA
40.978,-124.109,ASOS,https://www.aviationweather.gov/metar/data?ids=KACV&format=raw&date=0&hours=36,KACV,CA
33.405,-118.416,ASOS,https://www.aviationweather.gov/metar/data?ids=KAVX&format=raw&date=0&hours=36,KAVX,CA
35.434,-119.057,ASOS,https://www.aviationweather.gov/metar/data?ids=KBFL&format=raw&date=0&hours=36,KBFL,CA
34.8537,-116.798,ASOS,https://www.aviationweather.gov/metar/data?ids=KDAG&format=raw&date=0&hours=36,KDAG,CA
37.373,-118.364,ASOS,https://www.aviationweather.gov/metar/data?ids=KBIH&format=raw&date=0&hours=36,KBIH,CA
39.275,-120.71,ASOS,https://www.aviationweather.gov/metar/data?ids=KBLU&format=raw&date=0&hours=36,KBLU,CA
33.619,-114.717,ASOS,https://www.aviationweather.gov/metar/data?ids=KBLH&format=raw&date=0&hours=36,KBLH,CA
32.572,-116.98,ASOS,https://www.aviationweather.gov/metar/data?ids=KSDM&format=raw&date=0&hours=36,KSDM,CA
34.201,-118.359,ASOS,https://www.aviationweather.gov/metar/data?ids=KBUR&format=raw&date=0&hours=36,KBUR,CA
34.214,-119.094,ASOS,https://www.aviationweather.gov/metar/data?ids=KCMA&format=raw&date=0&hours=36,KCMA,CA
33.128,-117.28,ASOS,https://www.aviationweather.gov/metar/data?ids=KCRQ&format=raw&date=0&hours=36,KCRQ,CA
33.975,-117.637,ASOS,https://www.aviationweather.gov/metar/data?ids=KCNO&format=raw&date=0&hours=36,KCNO,CA
37.99,-122.057,ASOS,https://www.aviationweather.gov/metar/data?ids=KCCR&format=raw&date=0&hours=36,KCCR,CA
41.78,-124.237,ASOS,https://www.aviationweather.gov/metar/data?ids=KCEC&format=raw&date=0&hours=36,KCEC,CA
36.776,-119.718,ASOS,https://www.aviationweather.gov/metar/data?ids=KFAT&format=raw&date=0&hours=36,KFAT,CA
33.872,-117.98,ASOS,https://www.aviationweather.gov/metar/data?ids=KFUL&format=raw&date=0&hours=36,KFUL,CA
36.317,-119.628,ASOS,https://www.aviationweather.gov/metar/data?ids=KHJO&format=raw&date=0&hours=36,KHJO,CA
33.923,-118.335,ASOS,https://www.aviationweather.gov/metar/data?ids=KHHR&format=raw&date=0&hours=36,KHHR,CA
37.659,-122.122,ASOS,https://www.aviationweather.gov/metar/data?ids=KHWD&format=raw&date=0&hours=36,KHWD,CA
32.834,-115.579,ASOS,https://www.aviationweather.gov/metar/data?ids=KIPL&format=raw&date=0&hours=36,KIPL,CA
34.741,-118.219,ASOS,https://www.aviationweather.gov/metar/data?ids=KWJF&format=raw&date=0&hours=36,KWJF,CA
37.693,-121.82,ASOS,https://www.aviationweather.gov/metar/data?ids=KLVK&format=raw&date=0&hours=36,KLVK,CA
33.818,-118.152,ASOS,https://www.aviationweather.gov/metar/data?ids=KLGB&format=raw&date=0&hours=36,KLGB,CA
33.943,-118.407,ASOS,https://www.aviationweather.gov/metar/data?ids=KLAX&format=raw&date=0&hours=36,KLAX,CA
36.989,-120.113,ASOS,https://www.aviationweather.gov/metar/data?ids=KMAE&format=raw&date=0&hours=36,KMAE,CA
39.098,-121.57,ASOS,https://www.aviationweather.gov/metar/data?ids=KMYV&format=raw&date=0&hours=36,KMYV,CA
37.285,-120.514,ASOS,https://www.aviationweather.gov/metar/data?ids=KMCE&format=raw&date=0&hours=36,KMCE,CA
37.721,-122.221,ASOS,https://www.aviationweather.gov/metar/data?ids=KOAK&format=raw&date=0&hours=36,KOAK,CA
37.626,-120.955,ASOS,https://www.aviationweather.gov/metar/data?ids=KMOD&format=raw&date=0&hours=36,KMOD,CA
41.782,-122.468,ASOS,https://www.aviationweather.gov/metar/data?ids=KSIY&format=raw&date=0&hours=36,KSIY,CA
36.587,-121.843,ASOS,https://www.aviationweather.gov/metar/data?ids=KMRY&format=raw&date=0&hours=36,KMRY,CA
41.317,-122.317,ASOS,https://www.aviationweather.gov/metar/data?ids=KMHS&format=raw&date=0&hours=36,KMHS,CA
38.213,-122.271,ASOS,https://www.aviationweather.gov/metar/data?ids=KAPC&format=raw&date=0&hours=36,KAPC,CA
34.766,-114.623,ASOS,https://www.aviationweather.gov/metar/data?ids=KEED&format=raw&date=0&hours=36,KEED,CA
33.218,-117.352,ASOS,https://www.aviationweather.gov/metar/data?ids=KOKB&format=raw&date=0&hours=36,KOKB,CA
34.056,-117.601,ASOS,https://www.aviationweather.gov/metar/data?ids=KONT&format=raw&date=0&hours=36,KONT,CA
39.488,-121.425,ASOS,https://www.aviationweather.gov/metar/data?ids=KOVE&format=raw&date=0&hours=36,KOVE,CA
34.201,-119.207,ASOS,https://www.aviationweather.gov/metar/data?ids=KOXR&format=raw&date=0&hours=36,KOXR,CA
33.83,-116.507,ASOS,https://www.aviationweather.gov/metar/data?ids=KPSP&format=raw&date=0&hours=36,KPSP,CA
34.629,-118.085,ASOS,https://www.aviationweather.gov/metar/data?ids=KPMD&format=raw&date=0&hours=36,KPMD,CA
35.673,-120.627,ASOS,https://www.aviationweather.gov/metar/data?ids=KPRB&format=raw&date=0&hours=36,KPRB,CA
33.039,-116.915,ASOS,https://www.aviationweather.gov/metar/data?ids=KRNM&format=raw&date=0&hours=36,KRNM,CA
40.151,-122.252,ASOS,https://www.aviationweather.gov/metar/data?ids=KRBL&format=raw&date=0&hours=36,KRBL,CA
40.509,-122.293,ASOS,https://www.aviationweather.gov/metar/data?ids=KRDD&format=raw&date=0&hours=36,KRDD,CA
33.952,-117.445,ASOS,https://www.aviationweather.gov/metar/data?ids=KRAL&format=raw&date=0&hours=36,KRAL,CA
38.513,-121.494,ASOS,https://www.aviationweather.gov/metar/data?ids=KSAC&format=raw&date=0&hours=36,KSAC,CA
38.696,-121.591,ASOS,https://www.aviationweather.gov/metar/data?ids=KSMF&format=raw&date=0&hours=36,KSMF,CA
36.663,-121.606,ASOS,https://www.aviationweather.gov/metar/data?ids=KSNS&format=raw&date=0&hours=36,KSNS,CA
32.816,-117.14,ASOS,https://www.aviationweather.gov/metar/data?ids=KMYF&format=raw&date=0&hours=36,KMYF,CA
32.734,-117.19,ASOS,https://www.aviationweather.gov/metar/data?ids=KSAN&format=raw&date=0&hours=36,KSAN,CA
37.619,-122.375,ASOS,https://www.aviationweather.gov/metar/data?ids=KSFO&format=raw&date=0&hours=36,KSFO,CA
37.363,-121.929,ASOS,https://www.aviationweather.gov/metar/data?ids=KSJC&format=raw&date=0&hours=36,KSJC,CA
35.236,-120.642,ASOS,https://www.aviationweather.gov/metar/data?ids=KSBP&format=raw&date=0&hours=36,KSBP,CA
34.744,-118.724,ASOS,https://www.aviationweather.gov/metar/data?ids=KSDB&format=raw&date=0&hours=36,KSDB,CA
33.676,-117.868,ASOS,https://www.aviationweather.gov/metar/data?ids=KSNA&format=raw&date=0&hours=36,KSNA,CA
34.426,-119.84,ASOS,https://www.aviationweather.gov/metar/data?ids=KSBA&format=raw&date=0&hours=36,KSBA,CA
34.899,-120.458,ASOS,https://www.aviationweather.gov/metar/data?ids=KSMX&format=raw&date=0&hours=36,KSMX,CA
34.016,-118.451,ASOS,https://www.aviationweather.gov/metar/data?ids=KSMO&format=raw&date=0&hours=36,KSMO,CA
38.509,-122.813,ASOS,https://www.aviationweather.gov/metar/data?ids=KSTS&format=raw&date=0&hours=36,KSTS,CA
38.894,-119.995,ASOS,https://www.aviationweather.gov/metar/data?ids=KTVL&format=raw&date=0&hours=36,KTVL,CA
37.894,-121.238,ASOS,https://www.aviationweather.gov/metar/data?ids=KSCK&format=raw&date=0&hours=36,KSCK,CA
33.627,-116.16,ASOS,https://www.aviationweather.gov/metar/data?ids=KTRM&format=raw&date=0&hours=36,KTRM,CA
39.126,-123.201,ASOS,https://www.aviationweather.gov/metar/data?ids=KUKI&format=raw&date=0&hours=36,KUKI,CA
38.378,-121.962,ASOS,https://www.aviationweather.gov/metar/data?ids=KVCB&format=raw&date=0&hours=36,KVCB,CA
34.21,-118.49,ASOS,https://www.aviationweather.gov/metar/data?ids=KVNY&format=raw&date=0&hours=36,KVNY,CA
36.936,-121.79,ASOS,https://www.aviationweather.gov/metar/data?ids=KWVI&format=raw&date=0&hours=36,KWVI,CA
40.176,-103.222,ASOS,https://www.aviationweather.gov/metar/data?ids=KAKO&format=raw&date=0&hours=36,KAKO,CO
39.223,-106.869,ASOS,https://www.aviationweather.gov/metar/data?ids=KASE&format=raw&date=0&hours=36,KASE,CO
39.243,-102.285,ASOS,https://www.aviationweather.gov/metar/data?ids=KITR&format=raw&date=0&hours=36,KITR,CO
38.806,-104.701,ASOS,https://www.aviationweather.gov/metar/data?ids=KCOS&format=raw&date=0&hours=36,KCOS,CO
37.303,-108.628,ASOS,https://www.aviationweather.gov/metar/data?ids=KCEZ&format=raw&date=0&hours=36,KCEZ,CO
40.495,-107.522,ASOS,https://www.aviationweather.gov/metar/data?ids=KCAG&format=raw&date=0&hours=36,KCAG,CO
39.57,-104.849,ASOS,https://www.aviationweather.gov/metar/data?ids=KAPA&format=raw&date=0&hours=36,KAPA,CO
39.862,-104.673,ASOS,https://www.aviationweather.gov/metar/data?ids=KDEN&format=raw&date=0&hours=36,KDEN,CO
37.152,-107.754,ASOS,https://www.aviationweather.gov/metar/data?ids=KDRO&format=raw&date=0&hours=36,KDRO,CO
39.123,-108.527,ASOS,https://www.aviationweather.gov/metar/data?ids=KGJT&format=raw&date=0&hours=36,KGJT,CO
38.05,-103.51,ASOS,https://www.aviationweather.gov/metar/data?ids=KLHX&format=raw&date=0&hours=36,KLHX,CO
38.07,-102.689,ASOS,https://www.aviationweather.gov/metar/data?ids=KLAA&format=raw&date=0&hours=36,KLAA,CO
39.22,-106.317,ASOS,https://www.aviationweather.gov/metar/data?ids=KLXV&format=raw&date=0&hours=36,KLXV,CO
39.275,-103.666,ASOS,https://www.aviationweather.gov/metar/data?ids=KLIC&format=raw&date=0&hours=36,KLIC,CO
40.049,-107.886,ASOS,https://www.aviationweather.gov/metar/data?ids=KEEO&format=raw&date=0&hours=36,KEEO,CO
38.51,-107.894,ASOS,https://www.aviationweather.gov/metar/data?ids=KMTJ&format=raw&date=0&hours=36,KMTJ,CO
38.289,-104.497,ASOS,https://www.aviationweather.gov/metar/data?ids=KPUB&format=raw&date=0&hours=36,KPUB,CO
39.526,-107.727,ASOS,https://www.aviationweather.gov/metar/data?ids=KRIL&format=raw&date=0&hours=36,KRIL,CO
37.435,-105.867,ASOS,https://www.aviationweather.gov/metar/data?ids=KALS&format=raw&date=0&hours=36,KALS,CO
37.259,-104.341,ASOS,https://www.aviationweather.gov/metar/data?ids=KTAD&format=raw&date=0&hours=36,KTAD,CO
41.372,-73.482,ASOS,https://www.aviationweather.gov/metar/data?ids=KDXR&format=raw&date=0&hours=36,KDXR,CT
41.33,-72.045,ASOS,https://www.aviationweather.gov/metar/data?ids=KGON&format=raw&date=0&hours=36,KGON,CT
41.737,-72.65,ASOS,https://www.aviationweather.gov/metar/data?ids=KHFD&format=raw&date=0&hours=36,KHFD,CT
41.164,-73.126,ASOS,https://www.aviationweather.gov/metar/data?ids=KBDR&format=raw&date=0&hours=36,KBDR,CT
41.509,-72.83,ASOS,https://www.aviationweather.gov/metar/data?ids=KMMK&format=raw&date=0&hours=36,KMMK,CT
41.264,-72.887,ASOS,https://www.aviationweather.gov/metar/data?ids=KHVN&format=raw&date=0&hours=36,KHVN,CT
41.744,-72.18,ASOS,https://www.aviationweather.gov/metar/data?ids=KIJD&format=raw&date=0&hours=36,KIJD,CT
41.939,-72.683,ASOS,https://www.aviationweather.gov/metar/data?ids=KBDL&format=raw&date=0&hours=36,KBDL,CT
38.689,-75.359,ASOS,https://www.aviationweather.gov/metar/data?ids=KGED&format=raw&date=0&hours=36,KGED,DE
39.679,-75.607,ASOS,https://www.aviationweather.gov/metar/data?ids=KILG&format=raw&date=0&hours=36,KILG,DE
38.852,-77.038,ASOS,https://www.aviationweather.gov/metar/data?ids=KDCA&format=raw&date=0&hours=36,KDCA,DC
29.728,-85.028,ASOS,https://www.aviationweather.gov/metar/data?ids=KAAF&format=raw&date=0&hours=36,KAAF,FL
28.474,-82.456,ASOS,https://www.aviationweather.gov/metar/data?ids=KBKV&format=raw&date=0&hours=36,KBKV,FL
30.779,-86.522,ASOS,https://www.aviationweather.gov/metar/data?ids=KCEW&format=raw&date=0&hours=36,KCEW,FL
29.18,-81.058,ASOS,https://www.aviationweather.gov/metar/data?ids=KDAB&format=raw&date=0&hours=36,KDAB,FL
30.4,-86.472,ASOS,https://www.aviationweather.gov/metar/data?ids=KDTS&format=raw&date=0&hours=36,KDTS,FL
26.073,-80.153,ASOS,https://www.aviationweather.gov/metar/data?ids=KFLL&format=raw&date=0&hours=36,KFLL,FL
26.197,-80.171,ASOS,https://www.aviationweather.gov/metar/data?ids=KFXE&format=raw&date=0&hours=36,KFXE,FL
27.495,-80.368,ASOS,https://www.aviationweather.gov/metar/data?ids=KFPR&format=raw&date=0&hours=36,KFPR,FL
26.587,-81.863,ASOS,https://www.aviationweather.gov/metar/data?ids=KFMY&format=raw&date=0&hours=36,KFMY,FL
26.536,-81.755,ASOS,https://www.aviationweather.gov/metar/data?ids=KRSW&format=raw&date=0&hours=36,KRSW,FL
29.69,-82.272,ASOS,https://www.aviationweather.gov/metar/data?ids=KGNV&format=raw&date=0&hours=36,KGNV,FL
26.001,-80.241,ASOS,https://www.aviationweather.gov/metar/data?ids=KHWO&format=raw&date=0&hours=36,KHWO,FL
30.336,-81.515,ASOS,https://www.aviationweather.gov/metar/data?ids=KCRG&format=raw&date=0&hours=36,KCRG,FL
30.494,-81.688,ASOS,https://www.aviationweather.gov/metar/data?ids=KJAX&format=raw&date=0&hours=36,KJAX,FL
24.556,-81.76,ASOS,https://www.aviationweather.gov/metar/data?ids=KEYW&format=raw&date=0&hours=36,KEYW,FL
28.823,-81.809,ASOS,https://www.aviationweather.gov/metar/data?ids=KLEE&format=raw&date=0&hours=36,KLEE,FL
24.726,-81.051,ASOS,https://www.aviationweather.gov/metar/data?ids=KMTH&format=raw&date=0&hours=36,KMTH,FL
30.838,-85.182,ASOS,https://www.aviationweather.gov/metar/data?ids=KMAI&format=raw&date=0&hours=36,KMAI,FL
28.103,-80.645,ASOS,https://www.aviationweather.gov/metar/data?ids=KMLB&format=raw&date=0&hours=36,KMLB,FL
25.907,-80.278,ASOS,https://www.aviationweather.gov/metar/data?ids=KOPF&format=raw&date=0&hours=36,KOPF,FL
25.648,-80.433,ASOS,https://www.aviationweather.gov/metar/data?ids=KTMB&format=raw&date=0&hours=36,KTMB,FL
25.793,-80.291,ASOS,https://www.aviationweather.gov/metar/data?ids=KMIA&format=raw&date=0&hours=36,KMIA,FL
26.153,-81.775,ASOS,https://www.aviationweather.gov/metar/data?ids=KAPF&format=raw&date=0&hours=36,KAPF,FL
28.778,-81.238,ASOS,https://www.aviationweather.gov/metar/data?ids=KSFB&format=raw&date=0&hours=36,KSFB,FL
28.546,-81.333,ASOS,https://www.aviationweather.gov/metar/data?ids=KORL&format=raw&date=0&hours=36,KORL,FL
28.429,-81.309,ASOS,https://www.aviationweather.gov/metar/data?ids=KMCO&format=raw&date=0&hours=36,KMCO,FL
26.683,-80.096,ASOS,https://www.aviationweather.gov/metar/data?ids=KPBI&format=raw&date=0&hours=36,KPBI,FL
30.212,-85.683,ASOS,https://www.aviationweather.gov/metar/data?ids=KECP&format=raw&date=0&hours=36,KECP,FL
30.474,-87.187,ASOS,https://www.aviationweather.gov/metar/data?ids=KPNS&format=raw&date=0&hours=36,KPNS,FL
26.247,-80.111,ASOS,https://www.aviationweather.gov/metar/data?ids=KPMP&format=raw&date=0&hours=36,KPMP,FL
26.92,-81.991,ASOS,https://www.aviationweather.gov/metar/data?ids=KPGD&format=raw&date=0&hours=36,KPGD,FL
27.396,-82.554,ASOS,https://www.aviationweather.gov/metar/data?ids=KSRQ&format=raw&date=0&hours=36,KSRQ,FL
27.765,-82.627,ASOS,https://www.aviationweather.gov/metar/data?ids=KSPG&format=raw&date=0&hours=36,KSPG,FL
27.91,-82.688,ASOS,https://www.aviationweather.gov/metar/data?ids=KPIE&format=raw&date=0&hours=36,KPIE,FL
30.397,-84.35,ASOS,https://www.aviationweather.gov/metar/data?ids=KTLH&format=raw&date=0&hours=36,KTLH,FL
27.976,-82.533,ASOS,https://www.aviationweather.gov/metar/data?ids=KTPA&format=raw&date=0&hours=36,KTPA,FL
27.656,-80.418,ASOS,https://www.aviationweather.gov/metar/data?ids=KVRB&format=raw&date=0&hours=36,KVRB,FL
28.063,-81.753,ASOS,https://www.aviationweather.gov/metar/data?ids=KGIF&format=raw&date=0&hours=36,KGIF,FL
31.536,-84.195,ASOS,https://www.aviationweather.gov/metar/data?ids=KABY&format=raw&date=0&hours=36,KABY,GA
31.536,-82.507,ASOS,https://www.aviationweather.gov/metar/data?ids=KAMG&format=raw&date=0&hours=36,KAMG,GA
33.949,-83.326,ASOS,https://www.aviationweather.gov/metar/data?ids=KAHN&format=raw&date=0&hours=36,KAHN,GA
33.779,-84.521,ASOS,https://www.aviationweather.gov/metar/data?ids=KFTY&format=raw&date=0&hours=36,KFTY,GA
33.876,-84.302,ASOS,https://www.aviationweather.gov/metar/data?ids=KPDK&format=raw&date=0&hours=36,KPDK,GA
33.357,-84.572,ASOS,https://www.aviationweather.gov/metar/data?ids=KFFC&format=raw&date=0&hours=36,KFFC,GA
33.637,-84.428,ASOS,https://www.aviationweather.gov/metar/data?ids=KATL&format=raw&date=0&hours=36,KATL,GA
33.467,-82.039,ASOS,https://www.aviationweather.gov/metar/data?ids=KDNL&format=raw&date=0&hours=36,KDNL,GA
33.37,-81.965,ASOS,https://www.aviationweather.gov/metar/data?ids=KAGS&format=raw&date=0&hours=36,KAGS,GA
34.123,-84.849,ASOS,https://www.aviationweather.gov/metar/data?ids=KVPC&format=raw&date=0&hours=36,KVPC,GA
32.516,-84.939,ASOS,https://www.aviationweather.gov/metar/data?ids=KCSG&format=raw&date=0&hours=36,KCSG,GA
34.273,-83.83,ASOS,https://www.aviationweather.gov/metar/data?ids=KGVL&format=raw&date=0&hours=36,KGVL,GA
32.693,-83.649,ASOS,https://www.aviationweather.gov/metar/data?ids=KMCN&format=raw&date=0&hours=36,KMCN,GA
34.351,-85.158,ASOS,https://www.aviationweather.gov/metar/data?ids=KRMG&format=raw&date=0&hours=36,KRMG,GA
32.128,-81.202,ASOS,https://www.aviationweather.gov/metar/data?ids=KSAV&format=raw&date=0&hours=36,KSAV,GA
31.152,-81.391,ASOS,https://www.aviationweather.gov/metar/data?ids=KSSI&format=raw&date=0&hours=36,KSSI,GA
30.783,-83.277,ASOS,https://www.aviationweather.gov/metar/data?ids=KVLD&format=raw&date=0&hours=36,KVLD,GA
13.484,144.79717,ASOS,https://www.aviationweather.gov/metar/data?ids=PGUM&format=raw&date=0&hours=36,PGUM,GU
21.319,-157.923,ASOS,https://www.aviationweather.gov/metar/data?ids=PHNL&format=raw&date=0&hours=36,PHNL,HI
19.72,-155.049,ASOS,https://www.aviationweather.gov/metar/data?ids=PHTO&format=raw&date=0&hours=36,PHTO,HI
20.899,-156.431,ASOS,https://www.aviationweather.gov/metar/data?ids=PHOG&format=raw&date=0&hours=36,PHOG,HI
21.307,-158.07,ASOS,https://www.aviationweather.gov/metar/data?ids=PHJR&format=raw&date=0&hours=36,PHJR,HI
19.739,-156.046,ASOS,https://www.aviationweather.gov/metar/data?ids=PHKO&format=raw&date=0&hours=36,PHKO,HI
21.976,-159.339,ASOS,https://www.aviationweather.gov/metar/data?ids=PHLI&format=raw&date=0&hours=36,PHLI,HI
21.153,-157.096,ASOS,https://www.aviationweather.gov/metar/data?ids=PHMK&format=raw&date=0&hours=36,PHMK,HI
43.564,-116.223,ASOS,https://www.aviationweather.gov/metar/data?ids=KBOI&format=raw&date=0&hours=36,KBOI,ID
42.543,-113.772,ASOS,https://www.aviationweather.gov/metar/data?ids=KBYI&format=raw&date=0&hours=36,KBYI,ID
44.524,-114.218,ASOS,https://www.aviationweather.gov/metar/data?ids=KLLJ&format=raw&date=0&hours=36,KLLJ,ID
43.514,-112.071,ASOS,https://www.aviationweather.gov/metar/data?ids=KIDA&format=raw&date=0&hours=36,KIDA,ID
42.727,-114.457,ASOS,https://www.aviationweather.gov/metar/data?ids=KJER&format=raw&date=0&hours=36,KJER,ID
42.482,-114.488,ASOS,https://www.aviationweather.gov/metar/data?ids=KTWF&format=raw&date=0&hours=36,KTWF,ID
46.375,-117.015,ASOS,https://www.aviationweather.gov/metar/data?ids=KLWS&format=raw&date=0&hours=36,KLWS,ID
44.889,-116.102,ASOS,https://www.aviationweather.gov/metar/data?ids=KMYL&format=raw&date=0&hours=36,KMYL,ID
47.457,-115.646,ASOS,https://www.aviationweather.gov/metar/data?ids=KMLP&format=raw&date=0&hours=36,KMLP,ID
42.91,-112.596,ASOS,https://www.aviationweather.gov/metar/data?ids=KPIH&format=raw&date=0&hours=36,KPIH,ID
43.834,-111.805,ASOS,https://www.aviationweather.gov/metar/data?ids=KRXE&format=raw&date=0&hours=36,KRXE,ID
37.778,-89.252,ASOS,https://www.aviationweather.gov/metar/data?ids=KMDH&format=raw&date=0&hours=36,KMDH,IL
41.772,-88.476,ASOS,https://www.aviationweather.gov/metar/data?ids=KARR&format=raw&date=0&hours=36,KARR,IL
41.908,-88.249,ASOS,https://www.aviationweather.gov/metar/data?ids=KDPA&format=raw&date=0&hours=36,KDPA,IL
42.195,-89.097,ASOS,https://www.aviationweather.gov/metar/data?ids=KRFD&format=raw&date=0&hours=36,KRFD,IL
42.422,-87.868,ASOS,https://www.aviationweather.gov/metar/data?ids=KUGN&format=raw&date=0&hours=36,KUGN,IL
42.114,-87.902,ASOS,https://www.aviationweather.gov/metar/data?ids=KPWK&format=raw&date=0&hours=36,KPWK,IL
41.786,-87.753,ASOS,https://www.aviationweather.gov/metar/data?ids=KMDW&format=raw&date=0&hours=36,KMDW,IL
41.979,-87.905,ASOS,https://www.aviationweather.gov/metar/data?ids=KORD&format=raw&date=0&hours=36,KORD,IL
39.834,-88.866,ASOS,https://www.aviationweather.gov/metar/data?ids=KDEC&format=raw&date=0&hours=36,KDEC,IL
38.764,-87.606,ASOS,https://www.aviationweather.gov/metar/data?ids=KLWV&format=raw&date=0&hours=36,KLWV,IL
39.478,-88.279,ASOS,https://www.aviationweather.gov/metar/data?ids=KMTO&format=raw&date=0&hours=36,KMTO,IL
41.449,-90.508,ASOS,https://www.aviationweather.gov/metar/data?ids=KMLI&format=raw&date=0&hours=36,KMLI,IL
40.664,-89.693,ASOS,https://www.aviationweather.gov/metar/data?ids=KPIA&format=raw&date=0&hours=36,KPIA,IL
39.943,-91.195,ASOS,https://www.aviationweather.gov/metar/data?ids=KUIN&format=raw&date=0&hours=36,KUIN,IL
39.844,-89.678,ASOS,https://www.aviationweather.gov/metar/data?ids=KSPI&format=raw&date=0&hours=36,KSPI,IL
38.571,-90.156,ASOS,https://www.aviationweather.gov/metar/data?ids=KCPS&format=raw&date=0&hours=36,KCPS,IL
40.039,-88.278,ASOS,https://www.aviationweather.gov/metar/data?ids=KCMI&format=raw&date=0&hours=36,KCMI,IL
38.037,-87.532,ASOS,https://www.aviationweather.gov/metar/data?ids=KEVV&format=raw&date=0&hours=36,KEVV,IN
40.979,-85.195,ASOS,https://www.aviationweather.gov/metar/data?ids=KFWA&format=raw&date=0&hours=36,KFWA,IN
41.526,-85.793,ASOS,https://www.aviationweather.gov/metar/data?ids=KGSH&format=raw&date=0&hours=36,KGSH,IN
39.831,-86.294,ASOS,https://www.aviationweather.gov/metar/data?ids=KEYE&format=raw&date=0&hours=36,KEYE,IN
39.717,-86.295,ASOS,https://www.aviationweather.gov/metar/data?ids=KIND&format=raw&date=0&hours=36,KIND,IN
40.412,-86.937,ASOS,https://www.aviationweather.gov/metar/data?ids=KLAF&format=raw&date=0&hours=36,KLAF,IN
39.146,-86.617,ASOS,https://www.aviationweather.gov/metar/data?ids=KBMG&format=raw&date=0&hours=36,KBMG,IN
40.242,-85.396,ASOS,https://www.aviationweather.gov/metar/data?ids=KMIE&format=raw&date=0&hours=36,KMIE,IN
39.583,-85.805,ASOS,https://www.aviationweather.gov/metar/data?ids=KGEZ&format=raw&date=0&hours=36,KGEZ,IN
41.708,-86.317,ASOS,https://www.aviationweather.gov/metar/data?ids=KSBN&format=raw&date=0&hours=36,KSBN,IN
39.452,-87.308,ASOS,https://www.aviationweather.gov/metar/data?ids=KHUF&format=raw&date=0&hours=36,KHUF,IN
41.454,-87.007,ASOS,https://www.aviationweather.gov/metar/data?ids=KVPZ&format=raw&date=0&hours=36,KVPZ,IN
41.992,-93.622,ASOS,https://www.aviationweather.gov/metar/data?ids=KAMW&format=raw&date=0&hours=36,KAMW,IA
40.783,-91.126,ASOS,https://www.aviationweather.gov/metar/data?ids=KBRL&format=raw&date=0&hours=36,KBRL,IA
41.885,-91.711,ASOS,https://www.aviationweather.gov/metar/data?ids=KCID&format=raw&date=0&hours=36,KCID,IA
41.61,-90.588,ASOS,https://www.aviationweather.gov/metar/data?ids=KDVN&format=raw&date=0&hours=36,KDVN,IA
41.534,-93.663,ASOS,https://www.aviationweather.gov/metar/data?ids=KDSM&format=raw&date=0&hours=36,KDSM,IA
42.402,-90.71,ASOS,https://www.aviationweather.gov/metar/data?ids=KDBQ&format=raw&date=0&hours=36,KDBQ,IA
43.408,-94.747,ASOS,https://www.aviationweather.gov/metar/data?ids=KEST&format=raw&date=0&hours=36,KEST,IA
41.64,-91.547,ASOS,https://www.aviationweather.gov/metar/data?ids=KIOW&format=raw&date=0&hours=36,KIOW,IA
40.633,-93.902,ASOS,https://www.aviationweather.gov/metar/data?ids=KLWD&format=raw&date=0&hours=36,KLWD,IA
42.113,-92.918,ASOS,https://www.aviationweather.gov/metar/data?ids=KMIW&format=raw&date=0&hours=36,KMIW,IA
43.158,-93.331,ASOS,https://www.aviationweather.gov/metar/data?ids=KMCW&format=raw&date=0&hours=36,KMCW,IA
41.107,-92.448,ASOS,https://www.aviationweather.gov/metar/data?ids=KOTM&format=raw&date=0&hours=36,KOTM,IA
42.403,-96.384,ASOS,https://www.aviationweather.gov/metar/data?ids=KSUX&format=raw&date=0&hours=36,KSUX,IA
43.166,-95.203,ASOS,https://www.aviationweather.gov/metar/data?ids=KSPW&format=raw&date=0&hours=36,KSPW,IA
42.557,-92.4,ASOS,https://www.aviationweather.gov/metar/data?ids=KALO&format=raw&date=0&hours=36,KALO,IA
37.669,-95.485,ASOS,https://www.aviationweather.gov/metar/data?ids=KCNU&format=raw&date=0&hours=36,KCNU,KS
37.094,-95.572,ASOS,https://www.aviationweather.gov/metar/data?ids=KCFV&format=raw&date=0&hours=36,KCFV,KS
39.549,-97.652,ASOS,https://www.aviationweather.gov/metar/data?ids=KCNK&format=raw&date=0&hours=36,KCNK,KS
37.764,-99.966,ASOS,https://www.aviationweather.gov/metar/data?ids=KDDC&format=raw&date=0&hours=36,KDDC,KS
38.332,-96.191,ASOS,https://www.aviationweather.gov/metar/data?ids=KEMP&format=raw&date=0&hours=36,KEMP,KS
37.928,-100.725,ASOS,https://www.aviationweather.gov/metar/data?ids=KGCK&format=raw&date=0&hours=36,KGCK,KS
39.371,-101.699,ASOS,https://www.aviationweather.gov/metar/data?ids=KGLD&format=raw&date=0&hours=36,KGLD,KS
39.379,-99.832,ASOS,https://www.aviationweather.gov/metar/data?ids=KHLC&format=raw&date=0&hours=36,KHLC,KS
38.066,-97.861,ASOS,https://www.aviationweather.gov/metar/data?ids=KHUT&format=raw&date=0&hours=36,KHUT,KS
39.011111,-95.2164722,ASOS,https://www.aviationweather.gov/metar/data?ids=KLWC&format=raw&date=0&hours=36,KLWC,KS
39.241,-96.671,ASOS,https://www.aviationweather.gov/metar/data?ids=KMHK&format=raw&date=0&hours=36,KMHK,KS
38.848,-94.738,ASOS,https://www.aviationweather.gov/metar/data?ids=KOJC&format=raw&date=0&hours=36,KOJC,KS
38.831,-94.89,ASOS,https://www.aviationweather.gov/metar/data?ids=KIXD&format=raw&date=0&hours=36,KIXD,KS
37.33,-95.506,ASOS,https://www.aviationweather.gov/metar/data?ids=KPPF&format=raw&date=0&hours=36,KPPF,KS
38.871,-98.812,ASOS,https://www.aviationweather.gov/metar/data?ids=KRSL&format=raw&date=0&hours=36,KRSL,KS
38.791,-97.652,ASOS,https://www.aviationweather.gov/metar/data?ids=KSLN&format=raw&date=0&hours=36,KSLN,KS
39.069,-95.623,ASOS,https://www.aviationweather.gov/metar/data?ids=KTOP&format=raw&date=0&hours=36,KTOP,KS
38.951,-95.664,ASOS,https://www.aviationweather.gov/metar/data?ids=KFOE&format=raw&date=0&hours=36,KFOE,KS
37.748,-97.221,ASOS,https://www.aviationweather.gov/metar/data?ids=KAAO&format=raw&date=0&hours=36,KAAO,KS
37.65,-97.433,ASOS,https://www.aviationweather.gov/metar/data?ids=KICT&format=raw&date=0&hours=36,KICT,KS
37.169,-97.038,ASOS,https://www.aviationweather.gov/metar/data?ids=KWLD&format=raw&date=0&hours=36,KWLD,KS
36.965,-86.42,ASOS,https://www.aviationweather.gov/metar/data?ids=KBWG&format=raw&date=0&hours=36,KBWG,KY
39.049,-84.668,ASOS,https://www.aviationweather.gov/metar/data?ids=KCVG&format=raw&date=0&hours=36,KCVG,KY
38.182,-84.906,ASOS,https://www.aviationweather.gov/metar/data?ids=KFFT&format=raw&date=0&hours=36,KFFT,KY
37.594,-83.317,ASOS,https://www.aviationweather.gov/metar/data?ids=KJKL&format=raw&date=0&hours=36,KJKL,KY
38.037,-84.606,ASOS,https://www.aviationweather.gov/metar/data?ids=KLEX&format=raw&date=0&hours=36,KLEX,KY
37.087,-84.077,ASOS,https://www.aviationweather.gov/metar/data?ids=KLOZ&format=raw&date=0&hours=36,KLOZ,KY
38.228,-85.664,ASOS,https://www.aviationweather.gov/metar/data?ids=KLOU&format=raw&date=0&hours=36,KLOU,KY
38.174,-85.736,ASOS,https://www.aviationweather.gov/metar/data?ids=KSDF&format=raw&date=0&hours=36,KSDF,KY
37.06,-88.773,ASOS,https://www.aviationweather.gov/metar/data?ids=KPAH&format=raw&date=0&hours=36,KPAH,KY
31.395,-92.296,ASOS,https://www.aviationweather.gov/metar/data?ids=KESF&format=raw&date=0&hours=36,KESF,LA
31.327,-92.549,ASOS,https://www.aviationweather.gov/metar/data?ids=KAEX&format=raw&date=0&hours=36,KAEX,LA
30.533,-91.15,ASOS,https://www.aviationweather.gov/metar/data?ids=KBTR&format=raw&date=0&hours=36,KBTR,LA
30.205,-91.988,ASOS,https://www.aviationweather.gov/metar/data?ids=KLFT&format=raw&date=0&hours=36,KLFT,LA
30.126,-93.223,ASOS,https://www.aviationweather.gov/metar/data?ids=KLCH&format=raw&date=0&hours=36,KLCH,LA
32.511,-92.038,ASOS,https://www.aviationweather.gov/metar/data?ids=KMLU&format=raw&date=0&hours=36,KMLU,LA
30.038,-91.884,ASOS,https://www.aviationweather.gov/metar/data?ids=KARA&format=raw&date=0&hours=36,KARA,LA
30.043,-90.028,ASOS,https://www.aviationweather.gov/metar/data?ids=KNEW&format=raw&date=0&hours=36,KNEW,LA
29.993,-90.258,ASOS,https://www.aviationweather.gov/metar/data?ids=KMSY&format=raw&date=0&hours=36,KMSY,LA
32.54,-93.745,ASOS,https://www.aviationweather.gov/metar/data?ids=KDTN&format=raw&date=0&hours=36,KDTN,LA
32.447,-93.826,ASOS,https://www.aviationweather.gov/metar/data?ids=KSHV&format=raw&date=0&hours=36,KSHV,LA
30.346,-89.821,ASOS,https://www.aviationweather.gov/metar/data?ids=KASD&format=raw&date=0&hours=36,KASD,LA
32.352,-91.028,ASOS,https://www.aviationweather.gov/metar/data?ids=KTVR&format=raw&date=0&hours=36,KTVR,LA
44.321,-69.797,ASOS,https://www.aviationweather.gov/metar/data?ids=KAUG&format=raw&date=0&hours=36,KAUG,ME
44.808,-68.828,ASOS,https://www.aviationweather.gov/metar/data?ids=KBGR&format=raw&date=0&hours=36,KBGR,ME
46.872,-68.018,ASOS,https://www.aviationweather.gov/metar/data?ids=KCAR&format=raw&date=0&hours=36,KCAR,ME
47.286,-68.313,ASOS,https://www.aviationweather.gov/metar/data?ids=KFVE&format=raw&date=0&hours=36,KFVE,ME
43.991,-70.948,ASOS,https://www.aviationweather.gov/metar/data?ids=KIZG&format=raw&date=0&hours=36,KIZG,ME
46.123,-67.792,ASOS,https://www.aviationweather.gov/metar/data?ids=KHUL&format=raw&date=0&hours=36,KHUL,ME
45.648,-68.686,ASOS,https://www.aviationweather.gov/metar/data?ids=KMLT&format=raw&date=0&hours=36,KMLT,ME
43.646,-70.309,ASOS,https://www.aviationweather.gov/metar/data?ids=KPWM&format=raw&date=0&hours=36,KPWM,ME
43.962,-69.713,ASOS,https://www.aviationweather.gov/metar/data?ids=KIWI&format=raw&date=0&hours=36,KIWI,ME
39.175,-76.668,ASOS,https://www.aviationweather.gov/metar/data?ids=KBWI&format=raw&date=0&hours=36,KBWI,MD
39.708,-77.73,ASOS,https://www.aviationweather.gov/metar/data?ids=KHGR&format=raw&date=0&hours=36,KHGR,MD
38.311,-75.124,ASOS,https://www.aviationweather.gov/metar/data?ids=KOXB&format=raw&date=0&hours=36,KOXB,MD
38.341,-75.51,ASOS,https://www.aviationweather.gov/metar/data?ids=KSBY&format=raw&date=0&hours=36,KSBY,MD
42.47,-71.289,ASOS,https://www.aviationweather.gov/metar/data?ids=KBED&format=raw&date=0&hours=36,KBED,MA
42.584,-70.917,ASOS,https://www.aviationweather.gov/metar/data?ids=KBVY&format=raw&date=0&hours=36,KBVY,MA
42.363,-71.007,ASOS,https://www.aviationweather.gov/metar/data?ids=KBOS&format=raw&date=0&hours=36,KBOS,MA
41.688,-69.99,ASOS,https://www.aviationweather.gov/metar/data?ids=KCQX&format=raw&date=0&hours=36,KCQX,MA
42.554,-71.759,ASOS,https://www.aviationweather.gov/metar/data?ids=KFIT&format=raw&date=0&hours=36,KFIT,MA
41.669,-70.28,ASOS,https://www.aviationweather.gov/metar/data?ids=KHYA&format=raw&date=0&hours=36,KHYA,MA
42.717,-71.124,ASOS,https://www.aviationweather.gov/metar/data?ids=KLWM&format=raw&date=0&hours=36,KLWM,MA
41.393,-70.614,ASOS,https://www.aviationweather.gov/metar/data?ids=KMVY&format=raw&date=0&hours=36,KMVY,MA
41.253,-70.06,ASOS,https://www.aviationweather.gov/metar/data?ids=KACK&format=raw&date=0&hours=36,KACK,MA
41.676,-70.957,ASOS,https://www.aviationweather.gov/metar/data?ids=KEWB&format=raw&date=0&hours=36,KEWB,MA
42.696,-73.17,ASOS,https://www.aviationweather.gov/metar/data?ids=KAQW&format=raw&date=0&hours=36,KAQW,MA
42.191,-71.173,ASOS,https://www.aviationweather.gov/metar/data?ids=KOWD&format=raw&date=0&hours=36,KOWD,MA
42.57,-72.289,ASOS,https://www.aviationweather.gov/metar/data?ids=KORE&format=raw&date=0&hours=36,KORE,MA
42.427,-73.293,ASOS,https://www.aviationweather.gov/metar/data?ids=KPSF&format=raw&date=0&hours=36,KPSF,MA
41.909,-70.729,ASOS,https://www.aviationweather.gov/metar/data?ids=KPYM&format=raw&date=0&hours=36,KPYM,MA
41.874,-71.017,ASOS,https://www.aviationweather.gov/metar/data?ids=KTAN&format=raw&date=0&hours=36,KTAN,MA
42.158,-72.716,ASOS,https://www.aviationweather.gov/metar/data?ids=KBAF&format=raw&date=0&hours=36,KBAF,MA
42.267,-71.876,ASOS,https://www.aviationweather.gov/metar/data?ids=KORH&format=raw&date=0&hours=36,KORH,MA
41.868,-84.077,ASOS,https://www.aviationweather.gov/metar/data?ids=KADG&format=raw&date=0&hours=36,KADG,MI
45.078,-83.56,ASOS,https://www.aviationweather.gov/metar/data?ids=KAPN&format=raw&date=0&hours=36,KAPN,MI
42.223,-83.746,ASOS,https://www.aviationweather.gov/metar/data?ids=KARB&format=raw&date=0&hours=36,KARB,MI
42.307,-85.252,ASOS,https://www.aviationweather.gov/metar/data?ids=KBTL&format=raw&date=0&hours=36,KBTL,MI
42.129,-86.429,ASOS,https://www.aviationweather.gov/metar/data?ids=KBEH&format=raw&date=0&hours=36,KBEH,MI
42.409,-83.01,ASOS,https://www.aviationweather.gov/metar/data?ids=KDET&format=raw&date=0&hours=36,KDET,MI
42.238,-83.53,ASOS,https://www.aviationweather.gov/metar/data?ids=KYIP&format=raw&date=0&hours=36,KYIP,MI
42.213,-83.353,ASOS,https://www.aviationweather.gov/metar/data?ids=KDTW&format=raw&date=0&hours=36,KDTW,MI
42.966,-83.744,ASOS,https://www.aviationweather.gov/metar/data?ids=KFNT&format=raw&date=0&hours=36,KFNT,MI
45.014,-84.704,ASOS,https://www.aviationweather.gov/metar/data?ids=KGLR&format=raw&date=0&hours=36,KGLR,MI
42.881,-85.523,ASOS,https://www.aviationweather.gov/metar/data?ids=KGRR&format=raw&date=0&hours=36,KGRR,MI
47.169,-88.489,ASOS,https://www.aviationweather.gov/metar/data?ids=KCMX&format=raw&date=0&hours=36,KCMX,MI
42.743,-86.107,ASOS,https://www.aviationweather.gov/metar/data?ids=KBIV&format=raw&date=0&hours=36,KBIV,MI
44.36,-84.671,ASOS,https://www.aviationweather.gov/metar/data?ids=KHTL&format=raw&date=0&hours=36,KHTL,MI
45.818,-88.115,ASOS,https://www.aviationweather.gov/metar/data?ids=KIMT&format=raw&date=0&hours=36,KIMT,MI
42.26,-84.459,ASOS,https://www.aviationweather.gov/metar/data?ids=KJXN&format=raw&date=0&hours=36,KJXN,MI
42.235,-85.552,ASOS,https://www.aviationweather.gov/metar/data?ids=KAZO&format=raw&date=0&hours=36,KAZO,MI
42.779,-84.587,ASOS,https://www.aviationweather.gov/metar/data?ids=KLAN&format=raw&date=0&hours=36,KLAN,MI
43.17,-86.238,ASOS,https://www.aviationweather.gov/metar/data?ids=KMKG&format=raw&date=0&hours=36,KMKG,MI
45.721,-84.797,ASOS,https://www.aviationweather.gov/metar/data?ids=KPLN&format=raw&date=0&hours=36,KPLN,MI
42.666,-83.42,ASOS,https://www.aviationweather.gov/metar/data?ids=KPTK&format=raw&date=0&hours=36,KPTK,MI
43.533,-84.08,ASOS,https://www.aviationweather.gov/metar/data?ids=KMBS&format=raw&date=0&hours=36,KMBS,MI
46.479,-84.369,ASOS,https://www.aviationweather.gov/metar/data?ids=KANJ&format=raw&date=0&hours=36,KANJ,MI
44.742,-85.582,ASOS,https://www.aviationweather.gov/metar/data?ids=KTVC&format=raw&date=0&hours=36,KTVC,MI
45.866,-95.395,ASOS,https://www.aviationweather.gov/metar/data?ids=KAXN&format=raw&date=0&hours=36,KAXN,MN
48.729,-94.612,ASOS,https://www.aviationweather.gov/metar/data?ids=KBDE&format=raw&date=0&hours=36,KBDE,MN
46.398,-94.138,ASOS,https://www.aviationweather.gov/metar/data?ids=KBRD&format=raw&date=0&hours=36,KBRD,MN
46.842,-92.194,ASOS,https://www.aviationweather.gov/metar/data?ids=KDLH&format=raw&date=0&hours=36,KDLH,MN
47.387,-92.839,ASOS,https://www.aviationweather.gov/metar/data?ids=KHIB&format=raw&date=0&hours=36,KHIB,MN
48.566,-93.403,ASOS,https://www.aviationweather.gov/metar/data?ids=KINL&format=raw&date=0&hours=36,KINL,MN
45.062,-93.354,ASOS,https://www.aviationweather.gov/metar/data?ids=KMIC&format=raw&date=0&hours=36,KMIC,MN
44.827,-93.457,ASOS,https://www.aviationweather.gov/metar/data?ids=KFCM&format=raw&date=0&hours=36,KFCM,MN
44.883,-93.217,ASOS,https://www.aviationweather.gov/metar/data?ids=KMSP&format=raw&date=0&hours=36,KMSP,MN
46.901,-95.073,ASOS,https://www.aviationweather.gov/metar/data?ids=KPKD&format=raw&date=0&hours=36,KPKD,MN
44.547,-95.082,ASOS,https://www.aviationweather.gov/metar/data?ids=KRWF&format=raw&date=0&hours=36,KRWF,MN
43.907,-92.499,ASOS,https://www.aviationweather.gov/metar/data?ids=KRST&format=raw&date=0&hours=36,KRST,MN
45.547,-94.06,ASOS,https://www.aviationweather.gov/metar/data?ids=KSTC&format=raw&date=0&hours=36,KSTC,MN
44.935,-93.06,ASOS,https://www.aviationweather.gov/metar/data?ids=KSTP&format=raw&date=0&hours=36,KSTP,MN
33.483,-90.986,ASOS,https://www.aviationweather.gov/metar/data?ids=KGLH&format=raw&date=0&hours=36,KGLH,MS
33.494,-90.085,ASOS,https://www.aviationweather.gov/metar/data?ids=KGWO&format=raw&date=0&hours=36,KGWO,MS
30.407,-89.07,ASOS,https://www.aviationweather.gov/metar/data?ids=KGPT&format=raw&date=0&hours=36,KGPT,MS
31.265,-89.253,ASOS,https://www.aviationweather.gov/metar/data?ids=KHBG&format=raw&date=0&hours=36,KHBG,MS
32.335,-90.222,ASOS,https://www.aviationweather.gov/metar/data?ids=KHKS&format=raw&date=0&hours=36,KHKS,MS
32.311,-90.076,ASOS,https://www.aviationweather.gov/metar/data?ids=KJAN&format=raw&date=0&hours=36,KJAN,MS
31.179,-90.472,ASOS,https://www.aviationweather.gov/metar/data?ids=KMCB&format=raw&date=0&hours=36,KMCB,MS
32.333,-88.752,ASOS,https://www.aviationweather.gov/metar/data?ids=KMEI&format=raw&date=0&hours=36,KMEI,MS
30.463,-88.529,ASOS,https://www.aviationweather.gov/metar/data?ids=KPQL&format=raw&date=0&hours=36,KPQL,MS
34.268,-88.77,ASOS,https://www.aviationweather.gov/metar/data?ids=KTUP&format=raw&date=0&hours=36,KTUP,MS
37.225,-89.571,ASOS,https://www.aviationweather.gov/metar/data?ids=KCGI&format=raw&date=0&hours=36,KCGI,MO
38.818,-92.22,ASOS,https://www.aviationweather.gov/metar/data?ids=KCOU&format=raw&date=0&hours=36,KCOU,MO
38.591,-92.156,ASOS,https://www.aviationweather.gov/metar/data?ids=KJEF&format=raw&date=0&hours=36,KJEF,MO
37.152,-94.498,ASOS,https://www.aviationweather.gov/metar/data?ids=KJLN&format=raw&date=0&hours=36,KJLN,MO
39.123,-94.593,ASOS,https://www.aviationweather.gov/metar/data?ids=KMKC&format=raw&date=0&hours=36,KMKC,MO
39.298,-94.714,ASOS,https://www.aviationweather.gov/metar/data?ids=KMCI&format=raw&date=0&hours=36,KMCI,MO
40.094,-92.545,ASOS,https://www.aviationweather.gov/metar/data?ids=KIRK&format=raw&date=0&hours=36,KIRK,MO
38.96,-94.371,ASOS,https://www.aviationweather.gov/metar/data?ids=KLXT&format=raw&date=0&hours=36,KLXT,MO
36.774,-90.325,ASOS,https://www.aviationweather.gov/metar/data?ids=KPOF&format=raw&date=0&hours=36,KPOF,MO
38.128,-91.77,ASOS,https://www.aviationweather.gov/metar/data?ids=KVIH&format=raw&date=0&hours=36,KVIH,MO
38.707,-93.176,ASOS,https://www.aviationweather.gov/metar/data?ids=KDMO&format=raw&date=0&hours=36,KDMO,MO
37.246,-93.389,ASOS,https://www.aviationweather.gov/metar/data?ids=KSGF&format=raw&date=0&hours=36,KSGF,MO
38.93,-90.43,ASOS,https://www.aviationweather.gov/metar/data?ids=KSET&format=raw&date=0&hours=36,KSET,MO
39.772,-94.91,ASOS,https://www.aviationweather.gov/metar/data?ids=KSTJ&format=raw&date=0&hours=36,KSTJ,MO
38.749,-90.354,ASOS,https://www.aviationweather.gov/metar/data?ids=KSTL&format=raw&date=0&hours=36,KSTL,MO
38.662,-90.652,ASOS,https://www.aviationweather.gov/metar/data?ids=KSUS&format=raw&date=0&hours=36,KSUS,MO
36.879,-91.903,ASOS,https://www.aviationweather.gov/metar/data?ids=KUNO&format=raw&date=0&hours=36,KUNO,MO
46.348,-104.26,ASOS,https://www.aviationweather.gov/metar/data?ids=KBHK&format=raw&date=0&hours=36,KBHK,MT
45.808,-108.543,ASOS,https://www.aviationweather.gov/metar/data?ids=KBIL&format=raw&date=0&hours=36,KBIL,MT
45.778,-111.153,ASOS,https://www.aviationweather.gov/metar/data?ids=KBZN&format=raw&date=0&hours=36,KBZN,MT
45.955,-112.498,ASOS,https://www.aviationweather.gov/metar/data?ids=KBTM&format=raw&date=0&hours=36,KBTM,MT
48.608,-112.376,ASOS,https://www.aviationweather.gov/metar/data?ids=KCTB&format=raw&date=0&hours=36,KCTB,MT
45.255,-112.553,ASOS,https://www.aviationweather.gov/metar/data?ids=KDLN&format=raw&date=0&hours=36,KDLN,MT
48.213,-106.615,ASOS,https://www.aviationweather.gov/metar/data?ids=KGGW&format=raw&date=0&hours=36,KGGW,MT
47.483,-111.371,ASOS,https://www.aviationweather.gov/metar/data?ids=KGTF&format=raw&date=0&hours=36,KGTF,MT
48.543,-109.762,ASOS,https://www.aviationweather.gov/metar/data?ids=KHVR&format=raw&date=0&hours=36,KHVR,MT
46.607,-111.983,ASOS,https://www.aviationweather.gov/metar/data?ids=KHLN&format=raw&date=0&hours=36,KHLN,MT
48.311,-114.256,ASOS,https://www.aviationweather.gov/metar/data?ids=KGPI&format=raw&date=0&hours=36,KGPI,MT
47.049,-109.467,ASOS,https://www.aviationweather.gov/metar/data?ids=KLWT&format=raw&date=0&hours=36,KLWT,MT
45.699,-110.448,ASOS,https://www.aviationweather.gov/metar/data?ids=KLVM&format=raw&date=0&hours=36,KLVM,MT
46.428,-105.886,ASOS,https://www.aviationweather.gov/metar/data?ids=KMLS&format=raw&date=0&hours=36,KMLS,MT
46.916,-114.091,ASOS,https://www.aviationweather.gov/metar/data?ids=KMSO&format=raw&date=0&hours=36,KMSO,MT
48.095,-105.575,ASOS,https://www.aviationweather.gov/metar/data?ids=KOLF&format=raw&date=0&hours=36,KOLF,MT
42.053,-102.804,ASOS,https://www.aviationweather.gov/metar/data?ids=KAIA&format=raw&date=0&hours=36,KAIA,NE
41.437,-99.642,ASOS,https://www.aviationweather.gov/metar/data?ids=KBBW&format=raw&date=0&hours=36,KBBW,NE
42.838,-103.096,ASOS,https://www.aviationweather.gov/metar/data?ids=KCDR&format=raw&date=0&hours=36,KCDR,NE
40.079,-95.592,ASOS,https://www.aviationweather.gov/metar/data?ids=KFNB&format=raw&date=0&hours=36,KFNB,NE
40.968,-98.31,ASOS,https://www.aviationweather.gov/metar/data?ids=KGRI&format=raw&date=0&hours=36,KGRI,NE
40.605,-98.428,ASOS,https://www.aviationweather.gov/metar/data?ids=KHSI&format=raw&date=0&hours=36,KHSI,NE
40.51,-101.62,ASOS,https://www.aviationweather.gov/metar/data?ids=KIML&format=raw&date=0&hours=36,KIML,NE
40.851,-96.759,ASOS,https://www.aviationweather.gov/metar/data?ids=KLNK&format=raw&date=0&hours=36,KLNK,NE
40.206,-100.592,ASOS,https://www.aviationweather.gov/metar/data?ids=KMCK&format=raw&date=0&hours=36,KMCK,NE
41.986,-97.435,ASOS,https://www.aviationweather.gov/metar/data?ids=KOFK&format=raw&date=0&hours=36,KOFK,NE
41.126,-100.684,ASOS,https://www.aviationweather.gov/metar/data?ids=KLBF&format=raw&date=0&hours=36,KLBF,NE
41.303,-95.894,ASOS,https://www.aviationweather.gov/metar/data?ids=KOMA&format=raw&date=0&hours=36,KOMA,NE
41.624,-98.952,ASOS,https://www.aviationweather.gov/metar/data?ids=KODX&format=raw&date=0&hours=36,KODX,NE
41.101,-102.985,ASOS,https://www.aviationweather.gov/metar/data?ids=KSNY&format=raw&date=0&hours=36,KSNY,NE
41.764,-96.178,ASOS,https://www.aviationweather.gov/metar/data?ids=KTQE&format=raw&date=0&hours=36,KTQE,NE
42.857,-100.549,ASOS,https://www.aviationweather.gov/metar/data?ids=KVTN&format=raw&date=0&hours=36,KVTN,NE
41.874,-103.596,ASOS,https://www.aviationweather.gov/metar/data?ids=KBFF&format=raw&date=0&hours=36,KBFF,NE
40.825,-115.792,ASOS,https://www.aviationweather.gov/metar/data?ids=KEKO&format=raw&date=0&hours=36,KEKO,NV
39.3,-114.842,ASOS,https://www.aviationweather.gov/metar/data?ids=KELY&format=raw&date=0&hours=36,KELY,NV
36.08,-115.152,ASOS,https://www.aviationweather.gov/metar/data?ids=KLAS&format=raw&date=0&hours=36,KLAS,NV
40.067,-118.565,ASOS,https://www.aviationweather.gov/metar/data?ids=KLOL&format=raw&date=0&hours=36,KLOL,NV
36.211,-115.195,ASOS,https://www.aviationweather.gov/metar/data?ids=KVGT&format=raw&date=0&hours=36,KVGT,NV
39.499,-119.768,ASOS,https://www.aviationweather.gov/metar/data?ids=KRNO&format=raw&date=0&hours=36,KRNO,NV
38.06,-117.087,ASOS,https://www.aviationweather.gov/metar/data?ids=KTPH&format=raw&date=0&hours=36,KTPH,NV
40.897,-117.806,ASOS,https://www.aviationweather.gov/metar/data?ids=KWMC&format=raw&date=0&hours=36,KWMC,NV
44.575,-71.176,ASOS,https://www.aviationweather.gov/metar/data?ids=KBML&format=raw&date=0&hours=36,KBML,NH
43.203,-71.502,ASOS,https://www.aviationweather.gov/metar/data?ids=KCON&format=raw&date=0&hours=36,KCON,NH
42.805,-72.003,ASOS,https://www.aviationweather.gov/metar/data?ids=KAFN&format=raw&date=0&hours=36,KAFN,NH
43.626,-72.304,ASOS,https://www.aviationweather.gov/metar/data?ids=KLEB&format=raw&date=0&hours=36,KLEB,NH
42.933,-71.436,ASOS,https://www.aviationweather.gov/metar/data?ids=KMHT&format=raw&date=0&hours=36,KMHT,NH
43.284,-70.929,ASOS,https://www.aviationweather.gov/metar/data?ids=KDAW&format=raw&date=0&hours=36,KDAW,NH
44.368,-71.545,ASOS,https://www.aviationweather.gov/metar/data?ids=KHIE&format=raw&date=0&hours=36,KHIE,NH
39.458,-74.577,ASOS,https://www.aviationweather.gov/metar/data?ids=KACY&format=raw&date=0&hours=36,KACY,NJ
40.875,-74.281,ASOS,https://www.aviationweather.gov/metar/data?ids=KCDW&format=raw&date=0&hours=36,KCDW,NJ
39.368,-75.072,ASOS,https://www.aviationweather.gov/metar/data?ids=KMIV&format=raw&date=0&hours=36,KMIV,NJ
39.943,-74.846,ASOS,https://www.aviationweather.gov/metar/data?ids=KVAY&format=raw&date=0&hours=36,KVAY,NJ
40.693,-74.169,ASOS,https://www.aviationweather.gov/metar/data?ids=KEWR&format=raw&date=0&hours=36,KEWR,NJ
40.626,-74.67,ASOS,https://www.aviationweather.gov/metar/data?ids=KSMQ&format=raw&date=0&hours=36,KSMQ,NJ
41.2,-74.623,ASOS,https://www.aviationweather.gov/metar/data?ids=KFWN&format=raw&date=0&hours=36,KFWN,NJ
40.85,-74.061,ASOS,https://www.aviationweather.gov/metar/data?ids=KTEB&format=raw&date=0&hours=36,KTEB,NJ
40.277,-74.814,ASOS,https://www.aviationweather.gov/metar/data?ids=KTTN&format=raw&date=0&hours=36,KTTN,NJ
35.04,-106.609,ASOS,https://www.aviationweather.gov/metar/data?ids=KABQ&format=raw&date=0&hours=36,KABQ,NM
32.338,-104.263,ASOS,https://www.aviationweather.gov/metar/data?ids=KCNM&format=raw&date=0&hours=36,KCNM,NM
36.446,-103.15,ASOS,https://www.aviationweather.gov/metar/data?ids=KCAO&format=raw&date=0&hours=36,KCAO,NM
32.262,-107.721,ASOS,https://www.aviationweather.gov/metar/data?ids=KDMN&format=raw&date=0&hours=36,KDMN,NM
36.741,-108.23,ASOS,https://www.aviationweather.gov/metar/data?ids=KFMN&format=raw&date=0&hours=36,KFMN,NM
35.511,-108.789,ASOS,https://www.aviationweather.gov/metar/data?ids=KGUP&format=raw&date=0&hours=36,KGUP,NM
35.654,-105.142,ASOS,https://www.aviationweather.gov/metar/data?ids=KLVS&format=raw&date=0&hours=36,KLVS,NM
36.742,-104.502,ASOS,https://www.aviationweather.gov/metar/data?ids=KRTN&format=raw&date=0&hours=36,KRTN,NM
33.302,-104.531,ASOS,https://www.aviationweather.gov/metar/data?ids=KROW&format=raw&date=0&hours=36,KROW,NM
35.617,-106.09,ASOS,https://www.aviationweather.gov/metar/data?ids=KSAF&format=raw&date=0&hours=36,KSAF,NM
33.237,-107.272,ASOS,https://www.aviationweather.gov/metar/data?ids=KTCS&format=raw&date=0&hours=36,KTCS,NM
35.183,-103.603,ASOS,https://www.aviationweather.gov/metar/data?ids=KTCC&format=raw&date=0&hours=36,KTCC,NM
42.748,-73.802,ASOS,https://www.aviationweather.gov/metar/data?ids=KALB&format=raw&date=0&hours=36,KALB,NY
42.209,-75.98,ASOS,https://www.aviationweather.gov/metar/data?ids=KBGM&format=raw&date=0&hours=36,KBGM,NY
42.941,-78.732,ASOS,https://www.aviationweather.gov/metar/data?ids=KBUF&format=raw&date=0&hours=36,KBUF,NY
42.571,-77.713,ASOS,https://www.aviationweather.gov/metar/data?ids=KDSV&format=raw&date=0&hours=36,KDSV,NY
42.493,-79.272,ASOS,https://www.aviationweather.gov/metar/data?ids=KDKK&format=raw&date=0&hours=36,KDKK,NY
42.16,-76.892,ASOS,https://www.aviationweather.gov/metar/data?ids=KELM&format=raw&date=0&hours=36,KELM,NY
40.729,-73.414,ASOS,https://www.aviationweather.gov/metar/data?ids=KFRG&format=raw&date=0&hours=36,KFRG,NY
43.119,-77.672,ASOS,https://www.aviationweather.gov/metar/data?ids=KROC&format=raw&date=0&hours=36,KROC,NY
43.351,-76.388,ASOS,https://www.aviationweather.gov/metar/data?ids=KFZY&format=raw&date=0&hours=36,KFZY,NY
43.341,-73.61,ASOS,https://www.aviationweather.gov/metar/data?ids=KGFL&format=raw&date=0&hours=36,KGFL,NY
44.936,-74.846,ASOS,https://www.aviationweather.gov/metar/data?ids=KMSS&format=raw&date=0&hours=36,KMSS,NY
41.51,-74.265,ASOS,https://www.aviationweather.gov/metar/data?ids=KMGJ&format=raw&date=0&hours=36,KMGJ,NY
40.64,-73.779,ASOS,https://www.aviationweather.gov/metar/data?ids=KJFK&format=raw&date=0&hours=36,KJFK,NY
40.777,-73.873,ASOS,https://www.aviationweather.gov/metar/data?ids=KLGA&format=raw&date=0&hours=36,KLGA,NY
40.795,-73.1,ASOS,https://www.aviationweather.gov/metar/data?ids=KISP&format=raw&date=0&hours=36,KISP,NY
43.107,-78.946,ASOS,https://www.aviationweather.gov/metar/data?ids=KIAG&format=raw&date=0&hours=36,KIAG,NY
42.637,-77.053,ASOS,https://www.aviationweather.gov/metar/data?ids=KPEO&format=raw&date=0&hours=36,KPEO,NY
44.651,-73.468,ASOS,https://www.aviationweather.gov/metar/data?ids=KPBG&format=raw&date=0&hours=36,KPBG,NY
41.627,-73.884,ASOS,https://www.aviationweather.gov/metar/data?ids=KPOU&format=raw&date=0&hours=36,KPOU,NY
43.234,-75.407,ASOS,https://www.aviationweather.gov/metar/data?ids=KRME&format=raw&date=0&hours=36,KRME,NY
44.385,-74.206,ASOS,https://www.aviationweather.gov/metar/data?ids=KSLK&format=raw&date=0&hours=36,KSLK,NY
40.822,-72.867,ASOS,https://www.aviationweather.gov/metar/data?ids=KHWV&format=raw&date=0&hours=36,KHWV,NY
43.111,-76.106,ASOS,https://www.aviationweather.gov/metar/data?ids=KSYR&format=raw&date=0&hours=36,KSYR,NY
43.992,-76.022,ASOS,https://www.aviationweather.gov/metar/data?ids=KART&format=raw&date=0&hours=36,KART,NY
42.11,-77.99,ASOS,https://www.aviationweather.gov/metar/data?ids=KELZ&format=raw&date=0&hours=36,KELZ,NY
40.844,-72.632,ASOS,https://www.aviationweather.gov/metar/data?ids=KFOK&format=raw&date=0&hours=36,KFOK,NY
41.067,-73.708,ASOS,https://www.aviationweather.gov/metar/data?ids=KHPN&format=raw&date=0&hours=36,KHPN,NY
35.436,-82.542,ASOS,https://www.aviationweather.gov/metar/data?ids=KAVL&format=raw&date=0&hours=36,KAVL,NC
34.73375,-76.6603611,ASOS,https://www.aviationweather.gov/metar/data?ids=KMRH&format=raw&date=0&hours=36,KMRH,NC
36.049,-79.475,ASOS,https://www.aviationweather.gov/metar/data?ids=KBUY&format=raw&date=0&hours=36,KBUY,NC
35.214,-80.943,ASOS,https://www.aviationweather.gov/metar/data?ids=KCLT&format=raw&date=0&hours=36,KCLT,NC
36.261,-76.175,ASOS,https://www.aviationweather.gov/metar/data?ids=KECG&format=raw&date=0&hours=36,KECG,NC
34.991,-78.88,ASOS,https://www.aviationweather.gov/metar/data?ids=KFAY&format=raw&date=0&hours=36,KFAY,NC
35.203,-81.15,ASOS,https://www.aviationweather.gov/metar/data?ids=KAKH&format=raw&date=0&hours=36,KAKH,NC
36.098,-79.937,ASOS,https://www.aviationweather.gov/metar/data?ids=KGSO&format=raw&date=0&hours=36,KGSO,NC
35.233,-75.618,ASOS,https://www.aviationweather.gov/metar/data?ids=KHSE&format=raw&date=0&hours=36,KHSE,NC
35.741,-81.39,ASOS,https://www.aviationweather.gov/metar/data?ids=KHKY&format=raw&date=0&hours=36,KHKY,NC
34.792,-79.366,ASOS,https://www.aviationweather.gov/metar/data?ids=KMEB&format=raw&date=0&hours=36,KMEB,NC
34.61,-79.06,ASOS,https://www.aviationweather.gov/metar/data?ids=KLBT&format=raw&date=0&hours=36,KLBT,NC
35.019,-80.62,ASOS,https://www.aviationweather.gov/metar/data?ids=KEQY&format=raw&date=0&hours=36,KEQY,NC
35.073,-77.043,ASOS,https://www.aviationweather.gov/metar/data?ids=KEWN&format=raw&date=0&hours=36,KEWN,NC
34.766177,-77.433511,ASOS,https://aviationweather.gov/metar/data?ids=knca&format=raw&date=&hours=36,KNCA,NC
35.878,-78.788,ASOS,https://www.aviationweather.gov/metar/data?ids=KRDU&format=raw&date=0&hours=36,KRDU,NC
35.856,-77.892,ASOS,https://www.aviationweather.gov/metar/data?ids=KRWI&format=raw&date=0&hours=36,KRWI,NC
34.271,-77.903,ASOS,https://www.aviationweather.gov/metar/data?ids=KILM&format=raw&date=0&hours=36,KILM,NC
36.134,-80.222,ASOS,https://www.aviationweather.gov/metar/data?ids=KINT&format=raw&date=0&hours=36,KINT,NC
46.773,-100.746,ASOS,https://www.aviationweather.gov/metar/data?ids=KBIS&format=raw&date=0&hours=36,KBIS,ND
46.797,-102.802,ASOS,https://www.aviationweather.gov/metar/data?ids=KDIK&format=raw&date=0&hours=36,KDIK,ND
46.921,-96.816,ASOS,https://www.aviationweather.gov/metar/data?ids=KFAR&format=raw&date=0&hours=36,KFAR,ND
47.949,-97.176,ASOS,https://www.aviationweather.gov/metar/data?ids=KGFK&format=raw&date=0&hours=36,KGFK,ND
46.015,-102.656,ASOS,https://www.aviationweather.gov/metar/data?ids=KHEI&format=raw&date=0&hours=36,KHEI,ND
46.93,-98.678,ASOS,https://www.aviationweather.gov/metar/data?ids=KJMS&format=raw&date=0&hours=36,KJMS,ND
48.259,-101.28,ASOS,https://www.aviationweather.gov/metar/data?ids=KMOT&format=raw&date=0&hours=36,KMOT,ND
48.2608,-103.7512,ASOS,https://www.aviationweather.gov/metar/data?ids=KXWA&format=raw&date=0&hours=36,KXWA,ND
15.119,145.72956,ASOS,https://www.aviationweather.gov/metar/data?ids=PGSN&format=raw&date=0&hours=36,PGSN,MP
41.038,-81.467,ASOS,https://www.aviationweather.gov/metar/data?ids=KAKR&format=raw&date=0&hours=36,KAKR,OH
40.916,-81.442,ASOS,https://www.aviationweather.gov/metar/data?ids=KCAK&format=raw&date=0&hours=36,KCAK,OH
41.778,-80.696,ASOS,https://www.aviationweather.gov/metar/data?ids=KHZY&format=raw&date=0&hours=36,KHZY,OH
39.103,-84.419,ASOS,https://www.aviationweather.gov/metar/data?ids=KLUK&format=raw&date=0&hours=36,KLUK,OH
41.518,-81.683,ASOS,https://www.aviationweather.gov/metar/data?ids=KBKL&format=raw&date=0&hours=36,KBKL,OH
41.412,-81.85,ASOS,https://www.aviationweather.gov/metar/data?ids=KCLE&format=raw&date=0&hours=36,KCLE,OH
39.998,-82.892,ASOS,https://www.aviationweather.gov/metar/data?ids=KCMH&format=raw&date=0&hours=36,KCMH,OH
40.08,-83.073,ASOS,https://www.aviationweather.gov/metar/data?ids=KOSU&format=raw&date=0&hours=36,KOSU,OH
39.589,-84.225,ASOS,https://www.aviationweather.gov/metar/data?ids=KMGY&format=raw&date=0&hours=36,KMGY,OH
39.902,-84.219,ASOS,https://www.aviationweather.gov/metar/data?ids=KDAY&format=raw&date=0&hours=36,KDAY,OH
41.338,-84.429,ASOS,https://www.aviationweather.gov/metar/data?ids=KDFI&format=raw&date=0&hours=36,KDFI,OH
41.587,-83.808,ASOS,https://www.aviationweather.gov/metar/data?ids=KTOL&format=raw&date=0&hours=36,KTOL,OH
41.012,-83.669,ASOS,https://www.aviationweather.gov/metar/data?ids=KFDY&format=raw&date=0&hours=36,KFDY,OH
39.364,-84.522,ASOS,https://www.aviationweather.gov/metar/data?ids=KHAO&format=raw&date=0&hours=36,KHAO,OH
39.756,-82.657,ASOS,https://www.aviationweather.gov/metar/data?ids=KLHQ&format=raw&date=0&hours=36,KLHQ,OH
40.707,-84.027,ASOS,https://www.aviationweather.gov/metar/data?ids=KAOH&format=raw&date=0&hours=36,KAOH,OH
41.344,-82.178,ASOS,https://www.aviationweather.gov/metar/data?ids=KLPR&format=raw&date=0&hours=36,KLPR,OH
40.822,-82.517,ASOS,https://www.aviationweather.gov/metar/data?ids=KMFD&format=raw&date=0&hours=36,KMFD,OH
40.616,-83.064,ASOS,https://www.aviationweather.gov/metar/data?ids=KMNN&format=raw&date=0&hours=36,KMNN,OH
40.471,-81.42,ASOS,https://www.aviationweather.gov/metar/data?ids=KPHD&format=raw&date=0&hours=36,KPHD,OH
40.025,-82.462,ASOS,https://www.aviationweather.gov/metar/data?ids=KVTA&format=raw&date=0&hours=36,KVTA,OH
41.565,-83.482,ASOS,https://www.aviationweather.gov/metar/data?ids=KTDZ&format=raw&date=0&hours=36,KTDZ,OH
39.428,-83.792,ASOS,https://www.aviationweather.gov/metar/data?ids=KILN&format=raw&date=0&hours=36,KILN,OH
40.875,-81.888,ASOS,https://www.aviationweather.gov/metar/data?ids=KBJJ&format=raw&date=0&hours=36,KBJJ,OH
41.261,-80.679,ASOS,https://www.aviationweather.gov/metar/data?ids=KYNG&format=raw&date=0&hours=36,KYNG,OH
39.945,-81.892,ASOS,https://www.aviationweather.gov/metar/data?ids=KZZV&format=raw&date=0&hours=36,KZZV,OH
36.763,-96.011,ASOS,https://www.aviationweather.gov/metar/data?ids=KBVO&format=raw&date=0&hours=36,KBVO,OK
35.34,-99.201,ASOS,https://www.aviationweather.gov/metar/data?ids=KCSM&format=raw&date=0&hours=36,KCSM,OK
34.352,-98.984,ASOS,https://www.aviationweather.gov/metar/data?ids=KFDR&format=raw&date=0&hours=36,KFDR,OK
36.296,-99.777,ASOS,https://www.aviationweather.gov/metar/data?ids=KGAG&format=raw&date=0&hours=36,KGAG,OK
35.851,-97.416,ASOS,https://www.aviationweather.gov/metar/data?ids=KGOK&format=raw&date=0&hours=36,KGOK,OK
36.685,-101.508,ASOS,https://www.aviationweather.gov/metar/data?ids=KGUY&format=raw&date=0&hours=36,KGUY,OK
34.991,-99.051,ASOS,https://www.aviationweather.gov/metar/data?ids=KHBR&format=raw&date=0&hours=36,KHBR,OK
34.568,-98.417,ASOS,https://www.aviationweather.gov/metar/data?ids=KLAW&format=raw&date=0&hours=36,KLAW,OK
34.882,-95.784,ASOS,https://www.aviationweather.gov/metar/data?ids=KMLC&format=raw&date=0&hours=36,KMLC,OK
35.658,-95.362,ASOS,https://www.aviationweather.gov/metar/data?ids=KMKO&format=raw&date=0&hours=36,KMKO,OK
35.534,-97.647,ASOS,https://www.aviationweather.gov/metar/data?ids=KPWA&format=raw&date=0&hours=36,KPWA,OK
35.393,-97.601,ASOS,https://www.aviationweather.gov/metar/data?ids=KOKC&format=raw&date=0&hours=36,KOKC,OK
36.732,-97.1,ASOS,https://www.aviationweather.gov/metar/data?ids=KPNC&format=raw&date=0&hours=36,KPNC,OK
36.161,-97.086,ASOS,https://www.aviationweather.gov/metar/data?ids=KSWO&format=raw&date=0&hours=36,KSWO,OK
36.04,-95.985,ASOS,https://www.aviationweather.gov/metar/data?ids=KRVS&format=raw&date=0&hours=36,KRVS,OK
36.198,-95.888,ASOS,https://www.aviationweather.gov/metar/data?ids=KTUL&format=raw&date=0&hours=36,KTUL,OK
46.158,-123.879,ASOS,https://www.aviationweather.gov/metar/data?ids=KAST&format=raw&date=0&hours=36,KAST,OR
45.247,-122.77,ASOS,https://www.aviationweather.gov/metar/data?ids=KUAO&format=raw&date=0&hours=36,KUAO,OR
44.837,-117.809,ASOS,https://www.aviationweather.gov/metar/data?ids=KBKE&format=raw&date=0&hours=36,KBKE,OR
43.592,-118.956,ASOS,https://www.aviationweather.gov/metar/data?ids=KBNO&format=raw&date=0&hours=36,KBNO,OR
44.123,-123.219,ASOS,https://www.aviationweather.gov/metar/data?ids=KEUG&format=raw&date=0&hours=36,KEUG,OR
45.828,-119.259,ASOS,https://www.aviationweather.gov/metar/data?ids=KHRI&format=raw&date=0&hours=36,KHRI,OR
42.156,-121.733,ASOS,https://www.aviationweather.gov/metar/data?ids=KLMT&format=raw&date=0&hours=36,KLMT,OR
45.195,-123.136,ASOS,https://www.aviationweather.gov/metar/data?ids=KMMV&format=raw&date=0&hours=36,KMMV,OR
45.51176,-118.42466,ASOS,https://www.aviationweather.gov/metar/data?ids=KMEH&format=raw&date=0&hours=360,KMEH,OR
42.374,-122.874,ASOS,https://www.aviationweather.gov/metar/data?ids=KMFR&format=raw&date=0&hours=36,KMFR,OR
44.021,-117.014,ASOS,https://www.aviationweather.gov/metar/data?ids=KONO&format=raw&date=0&hours=36,KONO,OR
45.695,-118.841,ASOS,https://www.aviationweather.gov/metar/data?ids=KPDT&format=raw&date=0&hours=36,KPDT,OR
45.541,-122.95,ASOS,https://www.aviationweather.gov/metar/data?ids=KHIO&format=raw&date=0&hours=36,KHIO,OR
45.549,-122.401,ASOS,https://www.aviationweather.gov/metar/data?ids=KTTD&format=raw&date=0&hours=36,KTTD,OR
45.589,-122.598,ASOS,https://www.aviationweather.gov/metar/data?ids=KPDX&format=raw&date=0&hours=36,KPDX,OR
44.254,-121.15,ASOS,https://www.aviationweather.gov/metar/data?ids=KRDM&format=raw&date=0&hours=36,KRDM,OR
43.239,-123.356,ASOS,https://www.aviationweather.gov/metar/data?ids=KRBG&format=raw&date=0&hours=36,KRBG,OR
44.91,-123.003,ASOS,https://www.aviationweather.gov/metar/data?ids=KSLE&format=raw&date=0&hours=36,KSLE,OR
45.771,-122.862,ASOS,https://www.aviationweather.gov/metar/data?ids=KSPB&format=raw&date=0&hours=36,KSPB,OR
42.6,-123.367,ASOS,https://www.aviationweather.gov/metar/data?ids=KSXT&format=raw&date=0&hours=36,KSXT,OR
40.652,-75.44,ASOS,https://www.aviationweather.gov/metar/data?ids=KABE&format=raw&date=0&hours=36,KABE,PA
40.296,-78.32,ASOS,https://www.aviationweather.gov/metar/data?ids=KAOO&format=raw&date=0&hours=36,KAOO,PA
41.803,-78.64,ASOS,https://www.aviationweather.gov/metar/data?ids=KBFD&format=raw&date=0&hours=36,KBFD,PA
41.049,-78.413,ASOS,https://www.aviationweather.gov/metar/data?ids=KFIG&format=raw&date=0&hours=36,KFIG,PA
40.333,-75.122,ASOS,https://www.aviationweather.gov/metar/data?ids=KDYL&format=raw&date=0&hours=36,KDYL,PA
41.178,-78.899,ASOS,https://www.aviationweather.gov/metar/data?ids=KDUJ&format=raw&date=0&hours=36,KDUJ,PA
42.082,-80.176,ASOS,https://www.aviationweather.gov/metar/data?ids=KERI&format=raw&date=0&hours=36,KERI,PA
40.217,-76.852,ASOS,https://www.aviationweather.gov/metar/data?ids=KCXY&format=raw&date=0&hours=36,KCXY,PA
40.194,-76.764,ASOS,https://www.aviationweather.gov/metar/data?ids=KMDT&format=raw&date=0&hours=36,KMDT,PA
40.316,-78.834,ASOS,https://www.aviationweather.gov/metar/data?ids=KJST&format=raw&date=0&hours=36,KJST,PA
40.122,-76.296,ASOS,https://www.aviationweather.gov/metar/data?ids=KLNS&format=raw&date=0&hours=36,KLNS,PA
41.627,-80.215,ASOS,https://www.aviationweather.gov/metar/data?ids=KGKJ&format=raw&date=0&hours=36,KGKJ,PA
40.082,-75.011,ASOS,https://www.aviationweather.gov/metar/data?ids=KPNE&format=raw&date=0&hours=36,KPNE,PA
39.872,-75.241,ASOS,https://www.aviationweather.gov/metar/data?ids=KPHL&format=raw&date=0&hours=36,KPHL,PA
40.354,-79.93,ASOS,https://www.aviationweather.gov/metar/data?ids=KAGC&format=raw&date=0&hours=36,KAGC,PA
40.492,-80.233,ASOS,https://www.aviationweather.gov/metar/data?ids=KPIT&format=raw&date=0&hours=36,KPIT,PA
41.138,-75.379,ASOS,https://www.aviationweather.gov/metar/data?ids=KMPO&format=raw&date=0&hours=36,KMPO,PA
40.24,-75.557,ASOS,https://www.aviationweather.gov/metar/data?ids=KPTW&format=raw&date=0&hours=36,KPTW,PA
40.379,-75.965,ASOS,https://www.aviationweather.gov/metar/data?ids=KRDG&format=raw&date=0&hours=36,KRDG,PA
40.821,-76.864,ASOS,https://www.aviationweather.gov/metar/data?ids=KSEG&format=raw&date=0&hours=36,KSEG,PA
41.339,-75.723,ASOS,https://www.aviationweather.gov/metar/data?ids=KAVP&format=raw&date=0&hours=36,KAVP,PA
41.242,-76.921,ASOS,https://www.aviationweather.gov/metar/data?ids=KIPT&format=raw&date=0&hours=36,KIPT,PA
39.917,-76.873,ASOS,https://www.aviationweather.gov/metar/data?ids=KTHV&format=raw&date=0&hours=36,KTHV,PA
18.44,-66.002,ASOS,https://www.aviationweather.gov/metar/data?ids=TJSJ&format=raw&date=0&hours=36,TJSJ,PR
41.533,-71.282,ASOS,https://www.aviationweather.gov/metar/data?ids=KUUU&format=raw&date=0&hours=36,KUUU,RI
41.724,-71.428,ASOS,https://www.aviationweather.gov/metar/data?ids=KPVD&format=raw&date=0&hours=36,KPVD,RI
41.35,-71.803,ASOS,https://www.aviationweather.gov/metar/data?ids=KWST&format=raw&date=0&hours=36,KWST,RI
34.495,-82.709,ASOS,https://www.aviationweather.gov/metar/data?ids=KAND&format=raw&date=0&hours=36,KAND,SC
32.899,-80.041,ASOS,https://www.aviationweather.gov/metar/data?ids=KCHS&format=raw&date=0&hours=36,KCHS,SC
34.672,-82.887,ASOS,https://www.aviationweather.gov/metar/data?ids=KCEU&format=raw&date=0&hours=36,KCEU,SC
33.971,-80.995,ASOS,https://www.aviationweather.gov/metar/data?ids=KCUB&format=raw&date=0&hours=36,KCUB,SC
33.939,-81.12,ASOS,https://www.aviationweather.gov/metar/data?ids=KCAE&format=raw&date=0&hours=36,KCAE,SC
34.185,-79.724,ASOS,https://www.aviationweather.gov/metar/data?ids=KFLO&format=raw&date=0&hours=36,KFLO,SC
34.848,-82.35,ASOS,https://www.aviationweather.gov/metar/data?ids=KGMU&format=raw&date=0&hours=36,KGMU,SC
34.249,-82.159,ASOS,https://www.aviationweather.gov/metar/data?ids=KGRD&format=raw&date=0&hours=36,KGRD,SC
34.896,-82.219,ASOS,https://www.aviationweather.gov/metar/data?ids=KGSP&format=raw&date=0&hours=36,KGSP,SC
33.812,-78.724,ASOS,https://www.aviationweather.gov/metar/data?ids=KCRE&format=raw&date=0&hours=36,KCRE,SC
33.457,-80.86,ASOS,https://www.aviationweather.gov/metar/data?ids=KOGB&format=raw&date=0&hours=36,KOGB,SC
34.988,-81.057,ASOS,https://www.aviationweather.gov/metar/data?ids=KUZA&format=raw&date=0&hours=36,KUZA,SC
45.449,-98.422,ASOS,https://www.aviationweather.gov/metar/data?ids=KABR&format=raw&date=0&hours=36,KABR,SD
43.733,-103.618,ASOS,https://www.aviationweather.gov/metar/data?ids=KCUT&format=raw&date=0&hours=36,KCUT,SD
44.385,-98.229,ASOS,https://www.aviationweather.gov/metar/data?ids=KHON&format=raw&date=0&hours=36,KHON,SD
43.775,-98.039,ASOS,https://www.aviationweather.gov/metar/data?ids=KMHE&format=raw&date=0&hours=36,KMHE,SD
45.547,-100.408,ASOS,https://www.aviationweather.gov/metar/data?ids=KMBG&format=raw&date=0&hours=36,KMBG,SD
44.048,-101.599,ASOS,https://www.aviationweather.gov/metar/data?ids=KPHP&format=raw&date=0&hours=36,KPHP,SD
44.383,-100.286,ASOS,https://www.aviationweather.gov/metar/data?ids=KPIR&format=raw&date=0&hours=36,KPIR,SD
43.023,-102.511,ASOS,https://www.aviationweather.gov/metar/data?ids=KIEN&format=raw&date=0&hours=36,KIEN,SD
44.045,-103.057,ASOS,https://www.aviationweather.gov/metar/data?ids=KRAP&format=raw&date=0&hours=36,KRAP,SD
43.582,-96.742,ASOS,https://www.aviationweather.gov/metar/data?ids=KFSD&format=raw&date=0&hours=36,KFSD,SD
44.914,-97.155,ASOS,https://www.aviationweather.gov/metar/data?ids=KATY&format=raw&date=0&hours=36,KATY,SD
43.39,-99.842,ASOS,https://www.aviationweather.gov/metar/data?ids=KICR&format=raw&date=0&hours=36,KICR,SD
36.475,-82.408,ASOS,https://www.aviationweather.gov/metar/data?ids=KTRI&format=raw&date=0&hours=36,KTRI,TN
35.035,-85.204,ASOS,https://www.aviationweather.gov/metar/data?ids=KCHA&format=raw&date=0&hours=36,KCHA,TN
36.622,-87.415,ASOS,https://www.aviationweather.gov/metar/data?ids=KCKV&format=raw&date=0&hours=36,KCKV,TN
35.951,-85.085,ASOS,https://www.aviationweather.gov/metar/data?ids=KCSV&format=raw&date=0&hours=36,KCSV,TN
35.811,-83.994,ASOS,https://www.aviationweather.gov/metar/data?ids=KTYS&format=raw&date=0&hours=36,KTYS,TN
35.6,-88.916,ASOS,https://www.aviationweather.gov/metar/data?ids=KMKL&format=raw&date=0&hours=36,KMKL,TN
35.043,-89.977,ASOS,https://www.aviationweather.gov/metar/data?ids=KMEM&format=raw&date=0&hours=36,KMEM,TN
36.125,-86.678,ASOS,https://www.aviationweather.gov/metar/data?ids=KBNA&format=raw&date=0&hours=36,KBNA,TN
32.411,-99.682,ASOS,https://www.aviationweather.gov/metar/data?ids=KABI&format=raw&date=0&hours=36,KABI,TX
27.741,-98.027,ASOS,https://www.aviationweather.gov/metar/data?ids=KALI&format=raw&date=0&hours=36,KALI,TX
35.219,-101.706,ASOS,https://www.aviationweather.gov/metar/data?ids=KAMA&format=raw&date=0&hours=36,KAMA,TX
29.109,-95.462,ASOS,https://www.aviationweather.gov/metar/data?ids=KLBX&format=raw&date=0&hours=36,KLBX,TX
32.664,-97.094,ASOS,https://www.aviationweather.gov/metar/data?ids=KGKY&format=raw&date=0&hours=36,KGKY,TX
30.195,-97.67,ASOS,https://www.aviationweather.gov/metar/data?ids=KAUS&format=raw&date=0&hours=36,KAUS,TX
29.951,-94.021,ASOS,https://www.aviationweather.gov/metar/data?ids=KBPT&format=raw&date=0&hours=36,KBPT,TX
35.701,-101.394,ASOS,https://www.aviationweather.gov/metar/data?ids=KBGD&format=raw&date=0&hours=36,KBGD,TX
25.907,-97.426,ASOS,https://www.aviationweather.gov/metar/data?ids=KBRO&format=raw&date=0&hours=36,KBRO,TX
30.739,-98.239,ASOS,https://www.aviationweather.gov/metar/data?ids=KBMQ&format=raw&date=0&hours=36,KBMQ,TX
34.434,-100.288,ASOS,https://www.aviationweather.gov/metar/data?ids=KCDS&format=raw&date=0&hours=36,KCDS,TX
30.589,-96.364,ASOS,https://www.aviationweather.gov/metar/data?ids=KCLL&format=raw&date=0&hours=36,KCLL,TX
30.352,-95.415,ASOS,https://www.aviationweather.gov/metar/data?ids=KCXO&format=raw&date=0&hours=36,KCXO,TX
27.77,-97.501,ASOS,https://www.aviationweather.gov/metar/data?ids=KCRP&format=raw&date=0&hours=36,KCRP,TX
32.028,-96.401,ASOS,https://www.aviationweather.gov/metar/data?ids=KCRS&format=raw&date=0&hours=36,KCRS,TX
28.457,-99.218,ASOS,https://www.aviationweather.gov/metar/data?ids=KCOT&format=raw&date=0&hours=36,KCOT,TX
36.023,-102.547,ASOS,https://www.aviationweather.gov/metar/data?ids=KDHT&format=raw&date=0&hours=36,KDHT,TX
32.847,-96.852,ASOS,https://www.aviationweather.gov/metar/data?ids=KDAL&format=raw&date=0&hours=36,KDAL,TX
33.178,-96.591,ASOS,https://www.aviationweather.gov/metar/data?ids=KTKI&format=raw&date=0&hours=36,KTKI,TX
32.681,-96.868,ASOS,https://www.aviationweather.gov/metar/data?ids=KRBD&format=raw&date=0&hours=36,KRBD,TX
32.897,-97.038,ASOS,https://www.aviationweather.gov/metar/data?ids=KDFW&format=raw&date=0&hours=36,KDFW,TX
29.374,-100.927,ASOS,https://www.aviationweather.gov/metar/data?ids=KDRT&format=raw&date=0&hours=36,KDRT,TX
33.201,-97.198,ASOS,https://www.aviationweather.gov/metar/data?ids=KDTO&format=raw&date=0&hours=36,KDTO,TX
31.807,-106.378,ASOS,https://www.aviationweather.gov/metar/data?ids=KELP&format=raw&date=0&hours=36,KELP,TX
30.916,-102.916,ASOS,https://www.aviationweather.gov/metar/data?ids=KFST&format=raw&date=0&hours=36,KFST,TX
32.988,-97.319,ASOS,https://www.aviationweather.gov/metar/data?ids=KAFW&format=raw&date=0&hours=36,KAFW,TX
32.82,-97.363,ASOS,https://www.aviationweather.gov/metar/data?ids=KFTW&format=raw&date=0&hours=36,KFTW,TX
29.265,-94.861,ASOS,https://www.aviationweather.gov/metar/data?ids=KGLS&format=raw&date=0&hours=36,KGLS,TX
26.229,-97.654,ASOS,https://www.aviationweather.gov/metar/data?ids=KHRL&format=raw&date=0&hours=36,KHRL,TX
29.36,-99.177,ASOS,https://www.aviationweather.gov/metar/data?ids=KHDO&format=raw&date=0&hours=36,KHDO,TX
30.062,-95.553,ASOS,https://www.aviationweather.gov/metar/data?ids=KDWH&format=raw&date=0&hours=36,KDWH,TX
29.985,-95.342,ASOS,https://www.aviationweather.gov/metar/data?ids=KIAH&format=raw&date=0&hours=36,KIAH,TX
29.521,-95.242,ASOS,https://www.aviationweather.gov/metar/data?ids=KLVJ&format=raw&date=0&hours=36,KLVJ,TX
29.622,-95.657,ASOS,https://www.aviationweather.gov/metar/data?ids=KSGR&format=raw&date=0&hours=36,KSGR,TX
29.646,-95.279,ASOS,https://www.aviationweather.gov/metar/data?ids=KHOU&format=raw&date=0&hours=36,KHOU,TX
30.747,-95.587,ASOS,https://www.aviationweather.gov/metar/data?ids=KUTS&format=raw&date=0&hours=36,KUTS,TX
30.511,-99.764,ASOS,https://www.aviationweather.gov/metar/data?ids=KJCT&format=raw&date=0&hours=36,KJCT,TX
32.384,-94.712,ASOS,https://www.aviationweather.gov/metar/data?ids=KGGG&format=raw&date=0&hours=36,KGGG,TX
33.664,-101.823,ASOS,https://www.aviationweather.gov/metar/data?ids=KLBB&format=raw&date=0&hours=36,KLBB,TX
31.234,-94.75,ASOS,https://www.aviationweather.gov/metar/data?ids=KLFK&format=raw&date=0&hours=36,KLFK,TX
26.176,-98.239,ASOS,https://www.aviationweather.gov/metar/data?ids=KMFE&format=raw&date=0&hours=36,KMFE,TX
31.943,-102.202,ASOS,https://www.aviationweather.gov/metar/data?ids=KMAF&format=raw&date=0&hours=36,KMAF,TX
32.782,-98.06,ASOS,https://www.aviationweather.gov/metar/data?ids=KMWL&format=raw&date=0&hours=36,KMWL,TX
29.705,-98.042,ASOS,https://www.aviationweather.gov/metar/data?ids=KBAZ&format=raw&date=0&hours=36,KBAZ,TX
31.921,-102.387,ASOS,https://www.aviationweather.gov/metar/data?ids=KODO&format=raw&date=0&hours=36,KODO,TX
28.728,-96.251,ASOS,https://www.aviationweather.gov/metar/data?ids=KPSX&format=raw&date=0&hours=36,KPSX,TX
26.166,-97.346,ASOS,https://www.aviationweather.gov/metar/data?ids=KPIL&format=raw&date=0&hours=36,KPIL,TX
28.087,-97.045,ASOS,https://www.aviationweather.gov/metar/data?ids=KRKP&format=raw&date=0&hours=36,KRKP,TX
31.358,-100.496,ASOS,https://www.aviationweather.gov/metar/data?ids=KSJT&format=raw&date=0&hours=36,KSJT,TX
29.337,-98.471,ASOS,https://www.aviationweather.gov/metar/data?ids=KSSF&format=raw&date=0&hours=36,KSSF,TX
29.534,-98.47,ASOS,https://www.aviationweather.gov/metar/data?ids=KSAT&format=raw&date=0&hours=36,KSAT,TX
32.709,-96.267,ASOS,https://www.aviationweather.gov/metar/data?ids=KTRL&format=raw&date=0&hours=36,KTRL,TX
32.354,-95.403,ASOS,https://www.aviationweather.gov/metar/data?ids=KTYR&format=raw&date=0&hours=36,KTYR,TX
28.853,-96.919,ASOS,https://www.aviationweather.gov/metar/data?ids=KVCT&format=raw&date=0&hours=36,KVCT,TX
31.611,-97.231,ASOS,https://www.aviationweather.gov/metar/data?ids=KACT&format=raw&date=0&hours=36,KACT,TX
33.989,-98.492,ASOS,https://www.aviationweather.gov/metar/data?ids=KSPS&format=raw&date=0&hours=36,KSPS,TX
31.78,-103.201,ASOS,https://www.aviationweather.gov/metar/data?ids=KINK&format=raw&date=0&hours=36,KINK,TX
37.707,-112.145,ASOS,https://www.aviationweather.gov/metar/data?ids=KBCE&format=raw&date=0&hours=36,KBCE,UT
37.701,-113.099,ASOS,https://www.aviationweather.gov/metar/data?ids=KCDC&format=raw&date=0&hours=36,KCDC,UT
41.791,-111.852,ASOS,https://www.aviationweather.gov/metar/data?ids=KLGU&format=raw&date=0&hours=36,KLGU,UT
38.427,-113.013,ASOS,https://www.aviationweather.gov/metar/data?ids=KMLF&format=raw&date=0&hours=36,KMLF,UT
38.755,-109.755,ASOS,https://www.aviationweather.gov/metar/data?ids=KCNY&format=raw&date=0&hours=36,KCNY,UT
41.196,-112.012,ASOS,https://www.aviationweather.gov/metar/data?ids=KOGD&format=raw&date=0&hours=36,KOGD,UT
39.614,-110.752,ASOS,https://www.aviationweather.gov/metar/data?ids=KPUC&format=raw&date=0&hours=36,KPUC,UT
40.788,-111.978,ASOS,https://www.aviationweather.gov/metar/data?ids=KSLC&format=raw&date=0&hours=36,KSLC,UT
40.441,-109.51,ASOS,https://www.aviationweather.gov/metar/data?ids=KVEL&format=raw&date=0&hours=36,KVEL,UT
44.204,-72.562,ASOS,https://www.aviationweather.gov/metar/data?ids=KMPV&format=raw&date=0&hours=36,KMPV,VT
42.891,-73.246,ASOS,https://www.aviationweather.gov/metar/data?ids=KDDH&format=raw&date=0&hours=36,KDDH,VT
44.472,-73.153,ASOS,https://www.aviationweather.gov/metar/data?ids=KBTV&format=raw&date=0&hours=36,KBTV,VT
44.535,-72.614,ASOS,https://www.aviationweather.gov/metar/data?ids=KMVL&format=raw&date=0&hours=36,KMVL,VT
43.344,-72.517,ASOS,https://www.aviationweather.gov/metar/data?ids=KVSF&format=raw&date=0&hours=36,KVSF,VT
18.337,-64.973,ASOS,https://www.aviationweather.gov/metar/data?ids=TIST&format=raw&date=0&hours=36,TIST,VI
17.702,-64.802,ASOS,https://www.aviationweather.gov/metar/data?ids=TISX&format=raw&date=0&hours=36,TISX,VI
38.139,-78.453,ASOS,https://www.aviationweather.gov/metar/data?ids=KCHO&format=raw&date=0&hours=36,KCHO,VA
36.573,-79.336,ASOS,https://www.aviationweather.gov/metar/data?ids=KDAN&format=raw&date=0&hours=36,KDAN,VA
37.709,-77.437,ASOS,https://www.aviationweather.gov/metar/data?ids=KOFP&format=raw&date=0&hours=36,KOFP,VA
37.327,-79.201,ASOS,https://www.aviationweather.gov/metar/data?ids=KLYH&format=raw&date=0&hours=36,KLYH,VA
37.132,-76.493,ASOS,https://www.aviationweather.gov/metar/data?ids=KPHF&format=raw&date=0&hours=36,KPHF,VA
36.895,-76.201,ASOS,https://www.aviationweather.gov/metar/data?ids=KORF&format=raw&date=0&hours=36,KORF,VA
37.505,-77.32,ASOS,https://www.aviationweather.gov/metar/data?ids=KRIC&format=raw&date=0&hours=36,KRIC,VA
37.326,-79.976,ASOS,https://www.aviationweather.gov/metar/data?ids=KROA&format=raw&date=0&hours=36,KROA,VA
38.852,-77.038,ASOS,https://www.aviationweather.gov/metar/data?ids=KDCA&format=raw&date=0&hours=36,KDCA,VA
36.987,-77.001,ASOS,https://www.aviationweather.gov/metar/data?ids=KAKQ&format=raw&date=0&hours=36,KAKQ,VA
37.94,-75.466,ASOS,https://www.aviationweather.gov/metar/data?ids=KWAL&format=raw&date=0&hours=36,KWAL,VA
38.945,-77.456,ASOS,https://www.aviationweather.gov/metar/data?ids=KIAD&format=raw&date=0&hours=36,KIAD,VA
48.793,-122.538,ASOS,https://www.aviationweather.gov/metar/data?ids=KBLI&format=raw&date=0&hours=36,KBLI,WA
45.619,-121.167,ASOS,https://www.aviationweather.gov/metar/data?ids=KDLS&format=raw&date=0&hours=36,KDLS,WA
47.967,-117.427,ASOS,https://www.aviationweather.gov/metar/data?ids=KDEW&format=raw&date=0&hours=36,KDEW,WA
47.033,-120.531,ASOS,https://www.aviationweather.gov/metar/data?ids=KELN&format=raw&date=0&hours=36,KELN,WA
47.308,-119.516,ASOS,https://www.aviationweather.gov/metar/data?ids=KEPH&format=raw&date=0&hours=36,KEPH,WA
47.906,-122.282,ASOS,https://www.aviationweather.gov/metar/data?ids=KPAE&format=raw&date=0&hours=36,KPAE,WA
48.522,-123.024,ASOS,https://www.aviationweather.gov/metar/data?ids=KFHR&format=raw&date=0&hours=36,KFHR,WA
46.971,-123.937,ASOS,https://www.aviationweather.gov/metar/data?ids=KHQM&format=raw&date=0&hours=36,KHQM,WA
47.209,-119.319,ASOS,https://www.aviationweather.gov/metar/data?ids=KMWH&format=raw&date=0&hours=36,KMWH,WA
46.969,-122.903,ASOS,https://www.aviationweather.gov/metar/data?ids=KOLM&format=raw&date=0&hours=36,KOLM,WA
48.465,-119.518,ASOS,https://www.aviationweather.gov/metar/data?ids=KOMK&format=raw&date=0&hours=36,KOMK,WA
46.265,-119.119,ASOS,https://www.aviationweather.gov/metar/data?ids=KPSC&format=raw&date=0&hours=36,KPSC,WA
48.12,-123.5,ASOS,https://www.aviationweather.gov/metar/data?ids=KCLM&format=raw&date=0&hours=36,KCLM,WA
46.744,-117.11,ASOS,https://www.aviationweather.gov/metar/data?ids=KPUW&format=raw&date=0&hours=36,KPUW,WA
47.937,-124.563,ASOS,https://www.aviationweather.gov/metar/data?ids=KUIL&format=raw&date=0&hours=36,KUIL,WA
47.493,-122.216,ASOS,https://www.aviationweather.gov/metar/data?ids=KRNT&format=raw&date=0&hours=36,KRNT,WA
47.53,-122.302,ASOS,https://www.aviationweather.gov/metar/data?ids=KBFI&format=raw&date=0&hours=36,KBFI,WA
47.449,-122.309,ASOS,https://www.aviationweather.gov/metar/data?ids=KSEA&format=raw&date=0&hours=36,KSEA,WA
47.234,-123.148,ASOS,https://www.aviationweather.gov/metar/data?ids=KSHN&format=raw&date=0&hours=36,KSHN,WA
47.62,-117.534,ASOS,https://www.aviationweather.gov/metar/data?ids=KGEG&format=raw&date=0&hours=36,KGEG,WA
47.683,-117.323,ASOS,https://www.aviationweather.gov/metar/data?ids=KSFF&format=raw&date=0&hours=36,KSFF,WA
47.266,-121.368,ASOS,https://www.aviationweather.gov/metar/data?ids=KSMP&format=raw&date=0&hours=36,KSMP,WA
47.268,-122.578,ASOS,https://www.aviationweather.gov/metar/data?ids=KTIW&format=raw&date=0&hours=36,KTIW,WA
45.621,-122.657,ASOS,https://www.aviationweather.gov/metar/data?ids=KVUO&format=raw&date=0&hours=36,KVUO,WA
46.095,-118.289,ASOS,https://www.aviationweather.gov/metar/data?ids=KALW&format=raw&date=0&hours=36,KALW,WA
47.398,-120.206,ASOS,https://www.aviationweather.gov/metar/data?ids=KEAT&format=raw&date=0&hours=36,KEAT,WA
46.568,-120.544,ASOS,https://www.aviationweather.gov/metar/data?ids=KYKM&format=raw&date=0&hours=36,KYKM,WA
37.787,-81.124,ASOS,https://www.aviationweather.gov/metar/data?ids=KBKW&format=raw&date=0&hours=36,KBKW,WV
37.281,-81.208,ASOS,https://www.aviationweather.gov/metar/data?ids=KBLF&format=raw&date=0&hours=36,KBLF,WV
38.373,-81.593,ASOS,https://www.aviationweather.gov/metar/data?ids=KCRW&format=raw&date=0&hours=36,KCRW,WV
39.297,-80.228,ASOS,https://www.aviationweather.gov/metar/data?ids=KCKB&format=raw&date=0&hours=36,KCKB,WV
38.89,-79.857,ASOS,https://www.aviationweather.gov/metar/data?ids=KEKN&format=raw&date=0&hours=36,KEKN,WV
38.367,-82.558,ASOS,https://www.aviationweather.gov/metar/data?ids=KHTS&format=raw&date=0&hours=36,KHTS,WV
39.402,-77.985,ASOS,https://www.aviationweather.gov/metar/data?ids=KMRB&format=raw&date=0&hours=36,KMRB,WV
39.643,-79.916,ASOS,https://www.aviationweather.gov/metar/data?ids=KMGW&format=raw&date=0&hours=36,KMGW,WV
39.345,-81.439,ASOS,https://www.aviationweather.gov/metar/data?ids=KPKB&format=raw&date=0&hours=36,KPKB,WV
40.175,-80.646,ASOS,https://www.aviationweather.gov/metar/data?ids=KHLG&format=raw&date=0&hours=36,KHLG,WV
46.549,-90.919,ASOS,https://www.aviationweather.gov/metar/data?ids=KASX&format=raw&date=0&hours=36,KASX,WI
43.161,-90.674,ASOS,https://www.aviationweather.gov/metar/data?ids=KOVS&format=raw&date=0&hours=36,KOVS,WI
44.866,-91.484,ASOS,https://www.aviationweather.gov/metar/data?ids=KEAU&format=raw&date=0&hours=36,KEAU,WI
43.771,-88.489,ASOS,https://www.aviationweather.gov/metar/data?ids=KFLD&format=raw&date=0&hours=36,KFLD,WI
44.485,-88.13,ASOS,https://www.aviationweather.gov/metar/data?ids=KGRB&format=raw&date=0&hours=36,KGRB,WI
46.025,-91.444,ASOS,https://www.aviationweather.gov/metar/data?ids=KHYR&format=raw&date=0&hours=36,KHYR,WI
42.596,-87.928,ASOS,https://www.aviationweather.gov/metar/data?ids=KENW&format=raw&date=0&hours=36,KENW,WI
43.879,-91.257,ASOS,https://www.aviationweather.gov/metar/data?ids=KLSE&format=raw&date=0&hours=36,KLSE,WI
43.212,-90.18,ASOS,https://www.aviationweather.gov/metar/data?ids=KLNR&format=raw&date=0&hours=36,KLNR,WI
43.14,-89.338,ASOS,https://www.aviationweather.gov/metar/data?ids=KMSN&format=raw&date=0&hours=36,KMSN,WI
44.637,-90.189,ASOS,https://www.aviationweather.gov/metar/data?ids=KMFI&format=raw&date=0&hours=36,KMFI,WI
42.947,-87.897,ASOS,https://www.aviationweather.gov/metar/data?ids=KMKE&format=raw&date=0&hours=36,KMKE,WI
43.984,-88.557,ASOS,https://www.aviationweather.gov/metar/data?ids=KOSH&format=raw&date=0&hours=36,KOSH,WI
42.761,-87.815,ASOS,https://www.aviationweather.gov/metar/data?ids=KRAC&format=raw&date=0&hours=36,KRAC,WI
45.631,-89.468,ASOS,https://www.aviationweather.gov/metar/data?ids=KRHI&format=raw&date=0&hours=36,KRHI,WI
43.77,-87.852,ASOS,https://www.aviationweather.gov/metar/data?ids=KSBM&format=raw&date=0&hours=36,KSBM,WI
44.926,-89.627,ASOS,https://www.aviationweather.gov/metar/data?ids=KAUW&format=raw&date=0&hours=36,KAUW,WI
44.36,-89.839,ASOS,https://www.aviationweather.gov/metar/data?ids=KISW&format=raw&date=0&hours=36,KISW,WI
42.585,-110.111,ASOS,https://www.aviationweather.gov/metar/data?ids=KBPI&format=raw&date=0&hours=36,KBPI,WY
44.381,-106.722,ASOS,https://www.aviationweather.gov/metar/data?ids=KBYG&format=raw&date=0&hours=36,KBYG,WY
42.908,-106.465,ASOS,https://www.aviationweather.gov/metar/data?ids=KCPR&format=raw&date=0&hours=36,KCPR,WY
41.156,-104.811,ASOS,https://www.aviationweather.gov/metar/data?ids=KCYS&format=raw&date=0&hours=36,KCYS,WY
42.797,-105.386,ASOS,https://www.aviationweather.gov/metar/data?ids=KDGW&format=raw&date=0&hours=36,KDGW,WY
41.275,-111.035,ASOS,https://www.aviationweather.gov/metar/data?ids=KEVW&format=raw&date=0&hours=36,KEVW,WY
44.349,-105.539,ASOS,https://www.aviationweather.gov/metar/data?ids=KGCC&format=raw&date=0&hours=36,KGCC,WY
44.517,-108.083,ASOS,https://www.aviationweather.gov/metar/data?ids=KGEY&format=raw&date=0&hours=36,KGEY,WY
42.812,-108.73,ASOS,https://www.aviationweather.gov/metar/data?ids=KLND&format=raw&date=0&hours=36,KLND,WY
41.312,-105.675,ASOS,https://www.aviationweather.gov/metar/data?ids=KLAR&format=raw&date=0&hours=36,KLAR,WY
41.806,-107.2,ASOS,https://www.aviationweather.gov/metar/data?ids=KRWL&format=raw&date=0&hours=36,KRWL,WY
43.064,-108.46,ASOS,https://www.aviationweather.gov/metar/data?ids=KRIW&format=raw&date=0&hours=36,KRIW,WY
41.594,-109.065,ASOS,https://www.aviationweather.gov/metar/data?ids=KRKS&format=raw&date=0&hours=36,KRKS,WY
44.769,-106.98,ASOS,https://www.aviationweather.gov/metar/data?ids=KSHR&format=raw&date=0&hours=36,KSHR,WY
42.065,-104.153,ASOS,https://www.aviationweather.gov/metar/data?ids=KTOR&format=raw&date=0&hours=36,KTOR,WY
43.966,-107.951,ASOS,https://www.aviationweather.gov/metar/data?ids=KWRL&format=raw&date=0&hours=36,KWRL,WY
